vid,tmstmp,rt,des,lat,lon,pdist,dly,matched_trip_id,prev_stop_name,next_stop_name,scheduled_arrival_next,delay_minutes,on_time_status,dist_from_next_stop_km,time_match_score_minutes,is_ghost,ghost_score,ghost_frozen,ghost_jump
1007,2026-02-19 23:38:00,79,Ford City,41.75489807128906,-87.73253631591797,58681,False,6770012340010,76th Street & Ford City Movie Theatre,Ford City,23:39:30,-1.5,early,0.115,0.63,False,0,False,False
1007,2026-02-19 23:39:00,79,Ford City,41.756141662597656,-87.73239135742188,59165,False,6770012340010,76th Street & Ford City Movie Theatre,Ford City,23:39:30,-0.5,on_time,0.076,0.02,False,0,False,False
1007,2026-02-19 23:40:00,79,Lakefront,41.75592422485352,-87.73309326171875,0,False,6770002284020,Ford City,76th Street & Ford City Movie Theatre,23:41:12,-1.2,ghost,0.188,0.5,True,1,False,True
1020,2026-02-19 23:38:00,76,Harlem,41.93118667602539,-87.77283732096355,41131,False,6770000833020,Diversey & Menard,Diversey & Marmora,23:37:17,0.7,on_time,0.044,0.82,False,0,False,False
1020,2026-02-19 23:39:00,76,Harlem,41.93114792673211,-87.77532958984375,41806,False,6770000833020,Diversey & Marmora,Diversey & Austin,23:37:50,1.2,on_time,0.043,1.28,False,0,False,False
1020,2026-02-19 23:40:00,76,Harlem,41.93110949652536,-87.7784367970058,42648,False,6770000833020,Diversey & Meade,Diversey & Melvina,23:38:42,1.3,on_time,0.193,1.72,False,0,False,False
1033,2026-02-19 23:38:00,85,Harrison,41.97452545166016,-87.76671123504639,5144,False,6770019609020,Milwaukee & Foster,Milwaukee & Gale,23:39:23,-1.4,early,0.509,0.34,False,0,False,False
1033,2026-02-19 23:39:00,85,Harrison,41.972435873062885,-87.76480602827229,6066,False,6770029043010,Central & Lake,Central & Race,23:38:42,0.3,ghost,9.253,0.34,True,1,False,False
1033,2026-02-19 23:40:00,85,Harrison,41.970634093651405,-87.76321220397949,6854,False,6770019609020,Milwaukee & Gale,Jefferson Park Transit Center North Drop Off,23:39:57,0.0,on_time,0.128,0.57,False,0,False,False
1039,2026-02-19 23:38:00,77,Diversey/Lake Shore,41.93941518238613,-87.69601862771171,37849,False,6770028455010,Belmont & California,Belmont & Washtenaw,23:39:52,-1.9,early,0.049,1.78,False,0,False,False
1039,2026-02-19 23:39:00,77,Diversey/Lake Shore,41.93941116333008,-87.69528566557786,38048,False,6770028455010,Belmont & Washtenaw,Belmont & Campbell,23:40:36,-1.6,early,0.376,0.89,False,0,False,False
1039,2026-02-19 23:40:00,77,Diversey/Lake Shore,41.93944799900055,-87.69062662124634,39310,False,6770028455010,Belmont & Campbell,Belmont & Western/Clybourn,23:41:14,-1.2,early,0.247,0.63,False,0,False,False
1046,2026-02-19 23:38:00,77,Diversey/Lake Shore,41.93804168701172,-87.80404472351074,8521,False,6770018434070,Belmont Red/Brown/Purple Line Station,Belmont & Seminary,23:38:32,-0.5,ghost,12.19,0.35,True,1,False,False
1046,2026-02-19 23:39:00,77,Diversey/Lake Shore,41.938079833984375,-87.80139057056324,9245,False,6770018434070,Belmont & Seminary,Belmont & Racine,23:39:42,-0.7,ghost,11.76,0.47,True,1,False,False
1046,2026-02-19 23:40:00,77,Diversey/Lake Shore,41.93809127807617,-87.80073165893555,9424,False,6770018434070,Belmont & Racine,Belmont & Lakewood,23:40:16,-0.3,ghost,11.54,0.26,True,1,False,False
1092,2026-02-19 23:38:00,4,Illinois Center,41.87836296613826,-87.62421062380768,75600,False,6770012057020,Michigan & Jackson,Michigan & Monroe,23:35:41,2.3,on_time,0.257,3.21,False,0,False,False
1092,2026-02-19 23:39:00,4,Illinois Center,41.880591652610086,-87.62425162575461,76409,False,6770012057020,Michigan & Monroe,Michigan & Madison,23:36:30,2.5,on_time,0.198,3.26,False,0,False,False
1095,2026-02-19 23:38:00,3,95th Red Line,41.718207768031526,-87.62322499800702,73425,False,6770031275020,Michigan & 98th Street,State & 95th Street,23:41:00,-3.0,early,0.361,2.21,False,0,False,False
1095,2026-02-19 23:40:00,3,95th Red Line,41.718207768031526,-87.62322499800702,73425,False,6770031275020,Michigan & 98th Street,State & 95th Street,23:41:00,-1.0,ghost,0.361,0.21,True,1,True,False
1104,2026-02-19 23:38:00,20,Austin,41.88158416748047,-87.66482053484235,10807,False,6770002740070,Madison & Laflin,Madison & Ashland,23:39:00,-1.0,on_time,0.145,0.62,False,0,False,False
1104,2026-02-19 23:40:00,20,Austin,41.881360735212056,-87.67397635323661,13302,False,6770002740070,Madison & Wood,Madison & United Center (1900 W),23:40:14,-0.2,on_time,0.023,0.15,False,0,False,False
1108,2026-02-19 23:38:00,20,Michigan,41.8817253112793,-87.65062713623047,33775,False,6770008587070,Madison & Morgan,Madison & Peoria,23:37:27,0.5,on_time,0.065,0.72,False,0,False,False
1109,2026-02-19 23:38:00,72,Pulaski,41.90980911254883,-87.72793579101562,20771,False,6770017510020,North Ave & Karlov,North Ave & Pulaski,23:40:00,-2.0,early,0.163,1.47,False,0,False,False
1116,2026-02-19 23:38:00,35,36th/Kedzie,41.830902099609375,-87.64054517392759,8228,False,6770008712020,35th Street & Normal,35th Street & Wallace,23:37:40,0.3,on_time,0.048,0.42,False,0,False,False
1116,2026-02-19 23:40:00,35,36th/Kedzie,41.83073043823242,-87.64781471535012,10222,False,6770037621010,35th Street & Halsted,35th Street & Lituanica,23:40:09,-0.2,on_time,0.05,0.0,False,0,False,False
1126,2026-02-19 23:38:00,53,Peterson,41.824581347013776,-87.72400665283203,30027,False,6770042213020,Pulaski & 41st Street,3741 S Pulaski,23:38:03,-0.0,on_time,0.054,0.05,False,0,False,False
1126,2026-02-19 23:40:00,53,Peterson,41.83283374184057,-87.72426792613247,33048,False,6770042213020,3300 S Pulaski,Pulaski & 32nd Street,23:41:09,-1.2,early,0.239,0.57,False,0,False,False
1182,2026-02-19 23:38:00,29,95th Red Line,41.722774505615234,-87.62433386908637,68778,False,6770027639020,Lafayette & 94th Street,95th Red Line Station,23:38:00,0.0,on_time,0.022,0.05,False,0,False,False
1182,2026-02-19 23:40:00,29,95th Red Line,41.722774505615234,-87.62433386908637,68778,False,6770048859010,Lafayette & 94th Street,95th Red Line Station,23:38:30,1.5,ghost,0.022,1.57,True,1,True,False
1212,2026-02-19 23:38:00,4,95th Red Line,41.750008477105034,-87.60526487562392,56196,False,6770046984010,Cottage Grove & 79th Street,Cottage Grove & 80th Street,23:37:00,1.0,on_time,0.047,1.14,False,0,False,False
1212,2026-02-19 23:40:00,4,95th Red Line,41.747731844584145,-87.60520617167155,57028,False,6770024712070,Cottage Grove & 81st Street,Cottage Grove & 82nd Street,23:40:56,-0.9,on_time,0.201,0.52,False,0,False,False
1213,2026-02-19 23:38:00,79,Lakefront,41.7517423918753,-87.56442306980942,32299,False,6770043919010,79th Street & Laflin,79th Street & Ashland,23:38:32,-0.5,ghost,8.199,0.11,True,1,False,False
1213,2026-02-19 23:39:00,79,Lakefront,41.75177383422851,-87.56177811395554,33023,False,6770043919010,79th Street & Ashland,79th Street & Paulina,23:39:09,-0.2,ghost,8.627,0.35,True,1,False,False
1213,2026-02-19 23:40:00,79,Lakefront,41.75185158139183,-87.5558573404948,34633,False,6770043919010,79th Street & Wood,79th Street & Wolcott,23:40:07,-0.1,ghost,9.518,0.1,True,1,False,False
1219,2026-02-19 23:39:00,87,91st/Commercial,41.735939025878906,-87.65344702679178,25297,False,6770003391020,200 W 87th Street,87th Street & Holland,23:37:53,1.1,on_time,1.711,1.19,False,0,False,False
1219,2026-02-19 23:39:00,87,91st/Commercial,41.735939025878906,-87.65344702679178,25297,False,6770003391020,200 W 87th Street,87th Street & Holland,23:37:53,1.1,on_time,1.711,1.19,False,0,False,False
1219,2026-02-19 23:40:00,87,91st/Commercial,41.735971089955925,-87.65086447226035,26001,False,6770003391020,87th Street & Holland,87th Street & Normal,23:38:37,1.4,on_time,1.224,1.59,False,0,False,False
1221,2026-02-19 23:38:00,8A,127th,41.70883377738621,-87.64295959472656,19680,False,6770026281020,Halsted & 102nd Street,Halsted & 103rd Street,23:39:35,-1.6,early,0.232,1.01,False,0,False,False
1221,2026-02-19 23:39:00,8A,127th,41.70523834228515,-87.64288659189262,21001,False,6770026281020,Halsted & 104th Street,Halsted & 105th Street,23:40:26,-1.4,early,0.2,1.04,False,0,False,False
1225,2026-02-19 23:38:00,81,Wilson/Marine,41.96799087524414,-87.75048405573918,3644,False,6770008466020,Lawrence & Lamon,Lawrence & Cicero,23:38:54,-0.9,on_time,0.209,0.43,False,0,False,False
1225,2026-02-19 23:39:00,81,Wilson/Marine,41.96803970336914,-87.74816284179687,4273,False,6770008466020,Lawrence & Lamon,Lawrence & Cicero,23:38:54,0.1,on_time,0.019,0.15,False,0,False,False
1225,2026-02-19 23:40:00,81,Wilson/Marine,41.96812057495117,-87.7401008605957,6463,False,6770008466020,Lawrence & Kenton,Lawrence & Elston,23:41:11,-1.2,early,0.049,1.04,False,0,False,False
1245,2026-02-19 23:38:00,70,Austin,41.90330410003662,-87.67158842086792,12545,False,6770009146020,Division & Paulina,Division & Wood,23:38:54,-0.9,on_time,0.049,0.78,False,0,False,False
1245,2026-02-19 23:39:00,70,Austin,41.903310546875,-87.67240264892578,12768,False,6770009146020,Division & Wood,Division & Damen,23:40:31,-1.5,early,0.374,0.02,False,0,False,False
1245,2026-02-19 23:40:00,70,Austin,41.90324783325195,-87.67724833768956,14091,False,6770009146020,Division & Damen,Division & Hoyne,23:40:59,-1.0,on_time,0.186,0.56,False,0,False,False
1256,2026-02-19 23:38:00,79,Ford City,41.751129639454376,-87.62563108786559,22608,False,6770034226020,79th Street & Campbell,79th Street & Western Terminal,23:37:30,0.5,on_time,4.684,0.83,False,0,False,False
1256,2026-02-19 23:39:00,79,Ford City,41.75088882446289,-87.62755533854167,23167,False,6770031230070,79th Street & Perry,79th Street & Wentworth,23:40:08,-1.1,early,0.189,0.55,False,0,False,False
1256,2026-02-19 23:40:00,79,Ford City,41.75078768048968,-87.63351309640068,24789,False,6770034226020,79th Street & Hamilton,79th Street & Hoyne,23:39:31,0.5,on_time,3.499,0.73,False,0,False,False
1278,2026-02-19 23:38:00,8,Waveland/Broadway,41.862361214377664,-87.64676666259766,42438,False,6770030890020,Halsted & 14th Place,Halsted & Maxwell,23:39:42,-1.7,early,0.259,0.78,False,0,False,False
1278,2026-02-19 23:39:00,8,Waveland/Broadway,41.86677782463305,-87.64688873291016,44057,False,6770030890020,Halsted & Maxwell,Halsted & Roosevelt,23:40:35,-1.6,early,0.098,1.36,False,0,False,False
1288,2026-02-19 23:38:00,79,Western,41.751731872558594,-87.56626691316303,6435,False,6770010228010,79th Street & Kilpatrick,79th Street & Kilbourn,23:38:18,-0.3,ghost,13.946,0.07,True,1,False,False
1288,2026-02-19 23:39:00,79,Western,41.75169066020421,-87.56800283704486,6904,False,6770010228010,79th Street & Kilpatrick,79th Street & Kilbourn,23:38:18,0.7,ghost,13.802,0.75,True,1,False,False
1288,2026-02-19 23:40:00,79,Western,41.75162887573242,-87.57360553741455,8431,False,6770021596070,79th Street & Kostner,79th Street & Tripp,23:41:00,-1.0,ghost,12.761,0.73,True,1,False,False
1308,2026-02-19 23:38:00,4,95th Red Line,41.84355576184331,-87.62358856201172,18544,False,6770021552020,Michigan & 26th Street,Michigan & 28th Street,23:37:27,0.5,on_time,0.047,0.7,False,0,False,False
1308,2026-02-19 23:40:00,4,95th Red Line,41.83655887179904,-87.62345886230469,21100,False,6770021552020,Michigan & 31st Street,Michigan & 32nd Street,23:39:45,0.2,on_time,0.037,0.38,False,0,False,False
1321,2026-02-19 23:38:00,15,103rd/Stony Island,41.80921936035156,-87.63191223144531,37,False,6770040772020,103rd Street & Stony Island Garage Terminal,103rd Street & Luella,23:40:51,-2.8,ghost,12.436,0.52,True,1,False,False
1321,2026-02-19 23:39:00,15,103rd/Stony Island,41.80921936035156,-87.63191223144531,37,False,6770001639020,47th Red Line Station,Wells & 47th Street,23:39:24,-0.4,on_time,0.079,0.04,False,0,False,False
1328,2026-02-19 23:39:00,53A,Pulaski Orange Line,41.74850117076527,-87.72187319668856,24381,False,6770023884070,Pulaski & 87th Street,Pulaski & Main (8800 South),23:40:37,-1.6,early,1.762,1.16,False,0,False,False
1328,2026-02-19 23:40:00,53A,Pulaski Orange Line,41.75445347740536,-87.7220580691383,26502,False,6770023884070,8900 S Pulaski,Pulaski & 91st Street,23:41:49,-1.8,early,2.959,1.51,False,0,False,False
1338,2026-02-19 23:38:00,4,Illinois Center,41.79487331842972,-87.60614763680151,41609,False,6770015144010,Cottage Grove & 56th Street,Cottage Grove & 55th Street,23:40:07,-2.1,early,0.041,1.99,False,0,False,False
1338,2026-02-19 23:40:00,4,Illinois Center,41.8021605355399,-87.60630798339844,44275,False,6770015144010,Cottage Grove & Drexel Square Drive,Cottage Grove & 51st Street,23:42:33,-2.5,early,0.036,2.4,False,0,False,False
1348,2026-02-19 23:38:00,3,Michigan/Chicago,41.87484686715262,-87.62417602539062,60293,False,6770043123020,Michigan & Balbo,Michigan & Ida B Wells Drive,23:37:23,0.6,on_time,0.078,0.86,False,0,False,False
1348,2026-02-19 23:39:00,3,Michigan/Chicago,41.878153183880976,-87.62420624377681,61497,False,6770043123020,Michigan & Jackson,Michigan & Monroe,23:39:58,-1.0,on_time,0.28,0.28,False,0,False,False
1352,2026-02-19 23:38:00,20,Washington/State,41.88048419436893,-87.77407280174461,0,False,6770041003020,Madison & Austin Terminal,Madison & Mayfield,23:39:46,-1.8,early,0.221,1.0,False,0,False,False
1352,2026-02-19 23:39:00,20,Washington/State,41.88048419436893,-87.77407280174461,0,False,6770041003020,Madison & Austin Terminal,Madison & Mayfield,23:39:46,-0.8,on_time,0.221,0.0,False,0,False,False
1360,2026-02-19 23:38:00,77,Cumberland,41.93307876586914,-87.63932800292969,1382,False,6770027821010,St. Joseph Hospital,Sheridan & Diversey,23:37:34,0.4,on_time,0.013,0.54,False,0,False,False
1360,2026-02-19 23:39:00,77,Cumberland,41.93415451049805,-87.63935089111328,1777,False,6770035749020,Sheridan & Diversey,Sheridan & Surf,23:39:30,-0.5,on_time,0.039,0.22,False,0,False,False
1360,2026-02-19 23:40:00,77,Cumberland,41.937461853027344,-87.63945007324219,2986,False,6770005901070,Belmont & Pacific (80th Avenue),Belmont & Orange (79th Avenue),23:40:16,-0.3,ghost,15.258,0.21,True,1,False,False
1366,2026-02-19 23:38:00,54,Montrose,41.95995181944312,-87.74767675632384,41586,False,6770004419020,Cicero & 23rd Street,Cicero & 24th Place Terminal,23:41:00,-3.0,ghost,12.612,2.62,True,1,False,False
1366,2026-02-19 23:40:00,54,Montrose,41.95995181944312,-87.74767675632384,41586,False,6770004419020,Cicero & 23rd Street,Cicero & 24th Place Terminal,23:41:00,-1.0,ghost,12.612,0.62,True,1,True,False
1394,2026-02-19 23:39:00,80,Broadway,41.95443494392164,-87.65880885268703,41215,False,6770047635010,Irving Park & Clark,Irving Park & Seminary,23:40:52,-1.9,early,0.146,1.36,False,0,False,False
1394,2026-02-19 23:39:00,80,Broadway,41.954471588134766,-87.65680252878289,41761,False,6770045954070,Irving Park & Nordica,Irving Park & Harlem,23:38:05,0.9,ghost,12.429,1.4,True,1,False,False
1394,2026-02-19 23:40:00,80,Broadway,41.95454025268555,-87.6515208024245,43196,False,6770047635010,Irving Park & Fremont,Irving Park & Broadway,23:42:44,-2.7,early,0.073,2.44,False,0,False,False
1398,2026-02-19 23:38:00,85,Harrison,41.93179716630416,-87.76626684015447,23198,False,6770026236070,Central & Wellington,Central & Barry,23:40:55,-2.9,early,0.542,2.72,False,0,False,False
1398,2026-02-19 23:39:00,85,Harrison,41.931400299072266,-87.76634135144822,23344,False,6770026236070,Central & Wellington,Central & Barry,23:40:55,-1.9,early,0.586,1.84,False,0,False,False
1398,2026-02-19 23:40:00,85,Harrison,41.929455705122514,-87.76618957519531,24052,False,6770026236070,Central & Barry,Central & Belmont,23:41:38,-1.6,early,1.032,1.46,False,0,False,False
1399,2026-02-19 23:39:00,65,Nordica,41.920566485478325,-87.77566997821515,48001,False,6770021927020,Grand & Austin,Grand & Meade,23:44:31,-5.5,early,0.199,5.07,False,0,False,False
1399,2026-02-19 23:40:00,65,Nordica,41.92179067511307,-87.78229402240954,49859,False,6770021927020,Grand & Melvina,Grand & Mobile,23:45:29,-5.5,early,0.052,5.36,False,0,False,False
1404,2026-02-19 23:39:00,80,Harlem,41.95330166666667,-87.8088,43031,False,6770045954070,Irving Park & Harlem,Forest Preserve Avenue & Harlem/Irving Park,23:39:00,0.0,on_time,0.007,0.07,False,0,False,False
1404,2026-02-19 23:39:00,80,Harlem,41.95330166666667,-87.8088,43031,False,6770045954070,Irving Park & Harlem,Forest Preserve Avenue & Harlem/Irving Park,23:39:00,0.0,on_time,0.007,0.07,False,0,False,False
1404,2026-02-19 23:40:00,80,Harlem,41.95324,-87.80896666666666,43031,False,6770045954070,Irving Park & Harlem,Forest Preserve Avenue & Harlem/Irving Park,23:39:00,1.0,on_time,0.009,1.07,False,0,False,False
1417,2026-02-19 23:39:00,29,95th Red Line,41.82688554128011,-87.6265214284261,30251,False,6770017317070,State & 37th Street,State & 38th Street,23:41:17,-2.3,early,0.133,1.93,False,0,False,False
1417,2026-02-19 23:40:00,29,95th Red Line,41.82387080091111,-87.62650299072266,31349,False,6770017317070,State & Pershing,State & 40th Street,23:42:23,-2.4,early,0.202,1.9,False,0,False,False
1420,2026-02-19 23:38:00,47,Midway Orange Line,41.80934143066406,-87.59154510498047,0,False,6770018667020,Lake Park & 47th Street Terminal,47th Street & Lake Park,23:36:36,1.4,on_time,0.121,2.0,False,0,False,False
1420,2026-02-19 23:40:00,47,Midway Orange Line,41.80934143066406,-87.59154510498047,0,False,6770018667020,Lake Park & 47th Street Terminal,47th Street & Lake Park,23:36:36,3.4,ghost,0.121,4.0,True,1,True,False
1442,2026-02-19 23:39:00,65,Nordica,41.92366409301758,-87.7960220972697,53747,False,6770021927020,Grand & Oak Park,Grand & New England,23:48:38,-9.6,early,0.123,9.34,False,0,False,False
1442,2026-02-19 23:39:00,65,Nordica,41.92358095683749,-87.80071331205822,55031,False,6770029372070,Grand & Sayre,Grand & Nordica Terminal,23:30:30,8.5,late,0.11,8.98,False,0,False,False
1444,2026-02-19 23:39:00,49,79th,41.91905245573624,-87.68751990276834,21772,False,6770009120070,Western & Palmer,Western & Armitage,23:40:24,-1.4,early,0.153,0.9,False,0,False,False
1444,2026-02-19 23:40:00,49,79th,41.91571388244629,-87.687428855896,22993,False,6770009120070,Western & Cortland (Blue Line),Western & St. Paul,23:42:05,-2.1,early,0.242,1.2,False,0,False,False
1452,2026-02-19 23:40:00,67,67th/South Shore,41.773738333333334,-87.58618333333334,46573,False,6770020923010,67th Street & Stony Island,67th Street & Cornell,23:39:48,0.2,on_time,0.097,0.43,False,0,False,False
1469,2026-02-19 23:35:00,55,Museum of Science & Industry,41.793563766479494,-87.67374786376953,22891,False,6770013245020,Garfield & Damen,Garfield & Wolcott,23:35:31,-0.5,on_time,0.174,0.11,False,0,False,False
1469,2026-02-19 23:35:00,55,Museum of Science & Industry,41.793563766479494,-87.67374786376953,22891,False,6770013245020,Garfield & Damen,Garfield & Wolcott,23:35:31,-0.5,on_time,0.174,0.11,False,0,False,False
1473,2026-02-19 23:39:00,63,Stony Island,41.78037000957288,-87.60832455283717,40047,False,6770035880020,63rd Street & Karlov,63rd Street & Keeler,23:38:46,0.2,ghost,9.92,0.35,True,1,False,False
1473,2026-02-19 23:40:00,63,Stony Island,41.78044128417969,-87.60233471844647,41699,False,6770035880020,63rd Street & Kostner,63rd Street & Kilbourn,23:40:30,-0.5,ghost,10.993,0.19,True,1,False,False
1484,2026-02-19 23:39:00,62,Harlem,41.86743071983601,-87.62748981344289,8703,False,6770037417010,Archer & Mayfield,Archer & Menard,23:40:06,-1.1,ghost,14.1,0.65,True,1,False,False
1484,2026-02-19 23:40:00,62,Harlem,41.864051055908206,-87.62744140625,9931,False,6770037417010,Archer & Major,Archer & Central,23:41:06,-1.1,ghost,13.543,0.82,True,1,False,False
1485,2026-02-19 23:38:00,55,Midway Orange Line,41.7933235168457,-87.71554747081939,38658,False,6770025852070,55th Street & Central Park,55th Street & Lawndale,23:41:29,-3.5,early,0.042,3.35,False,0,False,False
1485,2026-02-19 23:40:00,55,Midway Orange Line,41.79322052001953,-87.72292362559925,40674,False,6770025852070,55th Street & Springfield,55th Street & Pulaski,23:43:10,-3.2,early,0.059,2.99,False,0,False,False
1491,2026-02-19 23:38:00,9,Ravenswood Metra,41.90738001177388,-87.66754150390625,69020,False,6770048807020,Ashland & Blackhawk,Ashland & North Ave,23:38:58,-1.0,on_time,0.38,0.66,False,0,False,False
1491,2026-02-19 23:39:00,9,Ravenswood Metra,41.911050377822505,-87.66764831542969,70357,False,6770048807020,Ashland & North Ave,Ashland & Cortland,23:41:11,-2.2,early,0.554,0.03,False,0,False,False
1492,2026-02-19 23:38:00,9,95th Red Line,41.85794052987728,-87.6661448928545,42277,False,6770044983020,Ashland & 15th Street,Ashland & 18th Street,23:40:12,-2.2,early,0.039,2.08,False,0,False,False
1492,2026-02-19 23:40:00,9,95th Red Line,41.85575051143252,-87.6660938920646,43077,False,6770044983020,Ashland & 18th Street,Ashland & Cullerton,23:41:00,-1.0,on_time,0.067,0.81,False,0,False,False
1500,2026-02-19 23:38:00,70,Austin,41.90216064453125,-87.76403839111327,37760,False,6770026803020,Division & Pine,Division & Central,23:39:06,-1.1,early,0.154,0.72,False,0,False,False
1500,2026-02-19 23:39:00,70,Austin,41.90218353271485,-87.76523699079242,38088,False,6770026803020,Division & Pine,Division & Central,23:39:06,-0.1,on_time,0.055,0.05,False,0,False,False
1500,2026-02-19 23:40:00,70,Austin,41.90211639404297,-87.77228546142578,39996,False,6770026803020,Division & Menard,Division & Mayfield,23:40:22,-0.4,on_time,0.044,0.25,False,0,False,False
1510,2026-02-19 23:39:00,36,Devon/Clark,41.8864540793679,-87.6295166015625,5036,False,6770023261020,Dearborn & Wacker/Lake,Dearborn & Marina City,23:39:35,-0.6,on_time,0.183,0.64,False,0,False,False
1510,2026-02-19 23:40:00,36,Devon/Clark,41.88896107328111,-87.6295664690543,5953,False,6770023261020,Dearborn & Marina City,Dearborn & Hubbard,23:40:25,-0.4,on_time,0.11,0.08,False,0,False,False
1511,2026-02-19 23:38:00,9,Ravenswood Metra,41.76665011319247,-87.66378021240234,16991,False,6770002441020,Ashland & 71st Street,Ashland & 70th Street,23:37:03,1.0,on_time,0.023,1.12,False,0,False,False
1511,2026-02-19 23:40:00,9,Ravenswood Metra,41.76846694946289,-87.66379824551669,17653,False,6770002441020,Ashland & 70th Street,Ashland & 69th Street,23:37:47,2.2,on_time,0.027,2.38,False,0,False,False
1520,2026-02-19 23:39:00,55,Ashland,41.79352188110352,-87.70369529724121,14692,False,6770014646020,55th Street & Spaulding,55th Street & Kedzie,23:39:56,-0.9,on_time,0.034,0.8,False,0,False,False
1520,2026-02-19 23:40:00,55,Ashland,41.79359817504883,-87.69871241871904,16047,False,6770005226070,Garfield Red Line Station,Garfield & Princeton,23:39:39,0.3,ghost,5.419,0.68,True,1,False,False
1524,2026-02-19 23:39:00,55,Museum of Science & Industry,41.79303216243136,-87.58389503368433,48632,False,6770029602010,55th Street & Kilpatrick,Midway Orange Line Station,23:42:00,-3.0,ghost,12.872,1.23,True,1,False,False
1524,2026-02-19 23:40:00,55,Midway Orange Line,41.79169845581055,-87.58247375488281,363,False,6770036663070,Midway Orange Line Station,55th Street & Kilpatrick,23:43:00,-3.0,ghost,13.053,0.24,True,1,False,True
1528,2026-02-19 23:39:00,80,Harlem,41.9536860874721,-87.73022809709822,21397,False,6770029010020,Irving Park & Keeler,Irving Park Blue Line Station,23:40:10,-1.2,early,0.018,0.58,False,0,False,False
1528,2026-02-19 23:39:00,80,Harlem,41.9536860874721,-87.73022809709822,21397,False,6770029010020,Irving Park & Keeler,Irving Park Blue Line Station,23:40:10,-1.2,early,0.018,0.58,False,0,False,False
1528,2026-02-19 23:40:00,80,Harlem,41.95363998413086,-87.73316110147012,22194,False,6770020732010,Irving Park Blue Line Station,Irving Park & Pulaski,23:41:00,-1.0,on_time,0.444,0.61,False,0,False,False
1535,2026-02-19 23:39:00,62,Kinzie/State,41.83869268243963,-87.66389867609197,45172,False,6770047505020,Archer & 49th Street/Avers,Archer & Pulaski,23:41:54,-2.9,ghost,6.35,2.54,True,1,False,False
1535,2026-02-19 23:40:00,62,Kinzie/State,41.84068566037897,-87.65996016117565,46463,False,6770047505020,Archer & Pulaski,Karlov & Archer,23:42:29,-2.5,ghost,7.021,2.2,True,1,False,False
1536,2026-02-19 23:39:00,49,79th,41.907911028180806,-87.68721335274833,25836,False,6770049737010,Western & Le Moyne,Western & Hirsch,23:38:49,0.2,on_time,0.155,0.8,False,0,False,False
1536,2026-02-19 23:40:00,49,79th,41.90316081047058,-87.68711853027344,27567,False,6770049737010,Western & Hirsch,Western & Division,23:40:06,-0.1,on_time,0.052,0.04,False,0,False,False
1550,2026-02-19 23:38:00,36,Devon/Clark,41.96017837524414,-87.65413665771484,34568,False,6770003316010,Clark & Armitage,Clark & Wisconsin,23:36:16,1.7,ghost,5.081,1.91,True,1,False,False
1550,2026-02-19 23:40:00,36,Devon/Clark,41.9616584777832,-87.65506744384766,35163,False,6770010358010,Broadway & Cullom,Broadway & Montrose,23:42:26,-2.4,early,0.068,2.28,False,0,False,False
1570,2026-02-19 23:38:00,9,Ravenswood Metra,41.86053085327149,-87.66617965698242,51946,False,6770025227070,Ashland & 18th Street,Ashland & 15th Street,23:37:25,0.6,on_time,0.123,1.07,False,0,False,False
1570,2026-02-19 23:40:00,9,Ravenswood Metra,41.86334409713745,-87.66629619598389,52979,False,6770024669010,Ashland & 14th Street,Ashland & Roosevelt,23:43:07,-3.1,early,0.372,1.77,False,0,False,False
1572,2026-02-19 23:39:00,94,74th/Damen,41.80828846202177,-87.69144035788143,55445,False,6770026783070,47th Street & Washtenaw,47th Street & Rockwell,23:40:43,-1.7,early,0.167,1.26,False,0,False,False
1572,2026-02-19 23:39:00,94,74th/Damen,41.80830764770508,-87.68934631347656,56020,False,6770026783070,47th Street & Rockwell,47th Street & Campbell,23:41:23,-2.4,early,0.195,1.72,False,0,False,False
1572,2026-02-19 23:40:00,94,74th/Damen,41.80841554914202,-87.68441772460938,57365,False,6770026783070,47th Street & Western Avenue,Western Orange Line Station,23:43:57,-4.0,early,0.364,2.32,False,0,False,False
1573,2026-02-19 23:39:00,94,74th/Damen,41.94576644897461,-87.69800567626953,1626,False,6770037474020,California & Addison,California & Roscoe,23:38:12,0.8,on_time,0.316,1.58,False,0,False,False
1573,2026-02-19 23:39:00,94,74th/Damen,41.94350051879883,-87.69795227050781,2454,False,6770037474020,California & Addison,California & Roscoe,23:38:12,0.8,on_time,0.065,0.96,False,0,False,False
1573,2026-02-19 23:40:00,94,74th/Damen,41.939571380615234,-87.69793701171875,3883,False,6770037474020,California & Belmont,California & Barry,23:39:54,0.1,on_time,0.213,0.65,False,0,False,False
1577,2026-02-19 23:39:00,63,Midway Orange Line,41.78051347552606,-87.5960303252598,3651,False,6770012590020,63rd Street & Kimbark,63rd Street & Woodlawn,23:37:59,1.0,on_time,0.042,1.13,False,0,False,False
1577,2026-02-19 23:40:00,63,Midway Orange Line,41.78044891357422,-87.6029301693565,5531,False,6770012590020,63rd Street & Ellis,63rd Street & Drexel,23:39:39,0.3,on_time,0.105,0.64,False,0,False,False
1580,2026-02-19 23:38:00,75,Lakefront,41.759071350097656,-87.5604255312965,45549,False,6770032945070,79th Street & Damen,79th Street & Hamilton,23:39:27,-1.5,ghost,9.688,1.26,True,1,False,False
1580,2026-02-19 23:39:00,75,Lakefront,41.75957749106667,-87.559176011519,45945,False,6770032945070,79th Street & Hamilton,79th Street & Oakley,23:40:11,-1.2,ghost,10.133,0.53,True,1,False,False
1580,2026-02-19 23:40:00,75,Lakefront,41.76139097947341,-87.55531897911659,47225,False,6770032945070,79th Street & Oakley,79th Street & Western,23:40:33,-0.5,ghost,10.632,0.37,True,1,False,False
1582,2026-02-19 23:39:00,63,Midway Orange Line,41.782127380371094,-87.74231719970703,45345,False,6770022437010,Cicero & 61st Street,Midway Orange Line Station,23:38:30,0.5,on_time,0.574,2.62,False,0,False,False
1582,2026-02-19 23:40:00,63,Midway Orange Line,41.78427461896624,-87.74098161969866,46287,False,6770022437010,Cicero & 61st Street,Midway Orange Line Station,23:38:30,1.5,on_time,0.313,2.76,False,0,False,False
1621,2026-02-19 23:38:00,80,Harlem,41.95446259634836,-87.65696280343192,1501,False,6770043790070,Irving Park & Kenmore,Irving Park & Clark,23:40:31,-2.5,early,0.423,1.03,False,0,False,False
1621,2026-02-19 23:39:00,80,Harlem,41.95439910888672,-87.6615784103806,2759,False,6770043790070,Irving Park & Kenmore,Irving Park & Clark,23:40:31,-1.5,early,0.042,1.37,False,0,False,False
1621,2026-02-19 23:40:00,80,Harlem,41.95436096191406,-87.66413951369951,3452,False,6770043790070,Irving Park & Clark,Irving Park & Southport,23:41:15,-1.2,early,0.045,1.09,False,0,False,False
1806,2026-02-19 23:39:00,147,Howard Station,41.88653448353643,-87.62445084945016,6500,False,6770043168010,Michigan & South Water,Michigan & Hubbard (Tribune Bldg.),23:41:09,-2.2,early,0.411,0.32,False,0,False,False
1806,2026-02-19 23:39:00,147,Howard Station,41.88653448353643,-87.62445084945016,6500,False,6770043168010,Michigan & South Water,Michigan & Hubbard (Tribune Bldg.),23:41:09,-2.2,early,0.411,0.32,False,0,False,False
1807,2026-02-19 23:38:00,155,Morse Red Line,41.9977543422154,-87.68836713518415,5908,False,6770009302010,Devon & Western,Devon & Oakley,23:37:38,0.4,on_time,0.069,0.59,False,0,False,False
1807,2026-02-19 23:39:00,155,Morse Red Line,41.99778020949591,-87.68742443266369,6164,False,6770003958020,Devon & Oakley,Devon & Leavitt,23:39:55,-0.9,on_time,0.213,0.19,False,0,False,False
1855,2026-02-19 23:39:00,146,Berwyn Red Line,41.8868293762207,-87.62445831298828,14846,False,6770002711070,State & E. Wacker,Michigan & South Water,23:40:21,-1.3,early,0.037,1.19,False,0,False,False
1855,2026-02-19 23:40:00,146,Berwyn Red Line,41.88793182373047,-87.62448120117188,15250,False,6770002711070,Michigan & South Water,Michigan & Hubbard (Tribune Bldg.),23:42:06,-2.1,early,0.257,0.89,False,0,False,False
1865,2026-02-19 23:39:00,49B,Western Brown Line,42.01814270019531,-87.68987274169922,1,False,6770026291020,Western & Birchwood Terminal,Western & Jarvis,23:40:23,-1.4,early,0.242,0.5,False,0,False,False
1865,2026-02-19 23:40:00,49B,Western Brown Line,42.01589144831119,-87.69024707960045,901,False,6770026291020,Western & Jarvis,Western & Chase,23:41:01,-1.0,on_time,0.205,0.43,False,0,False,False
1873,2026-02-19 23:39:00,50,Ashland/Clark,41.96131246230181,-87.67891737994026,49616,False,6770001439070,Damen & Montrose,Damen & Sunnyside,23:41:07,-2.1,early,0.209,1.5,False,0,False,False
1873,2026-02-19 23:40:00,50,Ashland/Clark,41.96637898399716,-87.67912292480469,51452,False,6770001439070,Damen & Eastwood (Brown Line),Damen & Lawrence,23:43:03,-3.0,early,0.299,2.19,False,0,False,False
1929,2026-02-19 23:38:00,66,Pulaski,41.89506149291992,-87.73770904541016,10061,False,6770043227070,Chicago & Kilbourn,Chicago & Kostner,23:38:19,-0.3,on_time,0.158,0.14,False,0,False,False
1929,2026-02-19 23:39:00,66,Pulaski,41.89513397216797,-87.73418426513672,11019,False,6770043227070,Chicago & Kostner,Chicago & Kildare,23:38:28,0.5,on_time,0.051,0.58,False,0,False,False
4025,2026-02-19 23:39:00,151,Devon/Clark,41.92001879656756,-87.63548872205946,21079,False,6770046565070,Stockton & Armitage,Stockton & Dickens,23:37:47,1.2,on_time,0.025,1.42,False,0,False,False
4025,2026-02-19 23:39:00,151,Devon/Clark,41.92115711521458,-87.63568981273754,21500,False,6770046565070,Stockton & Dickens,Stockton & Webster,23:38:09,0.8,on_time,0.086,0.98,False,0,False,False
4029,2026-02-19 23:39:00,22,Howard,41.99585700035095,-87.6700668334961,49010,False,6770021116070,Clark & Granville,Clark & Rosemont,23:40:17,-1.3,early,0.05,1.13,False,0,False,False
4029,2026-02-19 23:40:00,22,Howard,41.998449908362495,-87.67064740922716,49982,False,6770021116070,Clark & Devon,Clark & Arthur,23:41:56,-1.9,early,0.259,1.18,False,0,False,False
4053,2026-02-19 23:39:00,6,79th/South Shore,41.87854655196027,-87.62775421142578,7554,False,6770007427010,State & Monroe,State & Jackson,23:41:01,-2.0,early,0.025,1.93,False,0,False,False
4064,2026-02-19 23:38:00,J14,103rd/Stony Island,41.74767039372371,-87.57593829815204,59085,False,6770042626070,Jeffery & 81st Street,Jeffery & 83rd Street/South Chicago,23:40:42,-2.7,early,0.278,2.04,False,0,False,False
4064,2026-02-19 23:40:00,J14,103rd/Stony Island,41.744819987903945,-87.57585088556463,60107,False,6770042626070,Jeffery & 83rd Street/South Chicago,Jeffery & 87th Street,23:42:34,-2.6,early,0.883,0.7,False,0,False,False
4083,2026-02-19 23:38:00,6,79th/South Shore,41.77744512557983,-87.58633937835694,50482,False,6770025305010,Stony Island & 64th Street,Stony Island & 65th Street,23:35:36,2.4,on_time,0.042,2.55,False,0,False,False
4083,2026-02-19 23:40:00,6,79th/South Shore,41.7736246992902,-87.58628845214844,51875,False,6770025305010,Stony Island & 65th Street,67th Street & Cornell,23:37:16,2.7,on_time,0.099,3.13,False,0,False,False
4130,2026-02-19 23:38:00,22,Harrison,41.99046377702193,-87.67013018059008,11768,False,6770015253010,Clark & Elmdale/Peterson,Clark & Thorndale,23:38:58,-1.0,on_time,0.239,0.43,False,0,False,False
4130,2026-02-19 23:39:00,22,Harrison,41.98719390451092,-87.66971379110258,12972,False,6770015253010,Clark & Thorndale,Clark & Edgewater,23:39:25,-0.4,on_time,0.129,0.2,False,0,False,False
4143,2026-02-19 23:38:00,22,Howard,41.88291875866876,-87.6294174194336,4889,False,6770012559070,Clark & Lunt,Clark & Morse,23:36:56,1.1,ghost,14.371,1.31,True,1,False,False
4143,2026-02-19 23:40:00,22,Howard,41.88555696275499,-87.6294937133789,5850,False,6770008908070,Dearborn & Randolph,Dearborn & Wacker/Lake,23:42:24,-2.4,early,0.071,2.01,False,0,False,False
4154,2026-02-19 23:39:00,151,Union Station,41.9538969560103,-87.6545243696733,20896,False,6770046565070,Stockton & Armitage,Stockton & Dickens,23:37:47,1.2,on_time,4.06,1.7,False,0,False,False
4154,2026-02-19 23:39:00,151,Union Station,41.95289158475572,-87.65449004242386,21266,False,6770046565070,Stockton & Dickens,Stockton & Webster,23:38:09,0.8,on_time,3.78,1.17,False,0,False,False
4155,2026-02-19 23:39:00,147,Howard Station,41.89503161112467,-87.62418111165364,9618,False,6770043168010,Michigan & Huron,Michigan & Chestnut,23:46:26,-7.4,early,0.339,5.59,False,0,False,False
4155,2026-02-19 23:39:00,147,Howard Station,41.89503161112467,-87.62418111165364,9618,False,6770043168010,Michigan & Huron,Michigan & Chestnut,23:46:26,-7.4,early,0.339,5.59,False,0,False,False
4157,2026-02-19 23:38:00,146,Berwyn Red Line,41.88682174682617,-87.62593841552734,14444,False,6770042701020,State & E. Wacker,Michigan & South Water,23:37:48,0.2,on_time,0.134,1.14,False,0,False,False
4157,2026-02-19 23:39:00,146,Berwyn Red Line,41.88682174682617,-87.62452697753906,14827,False,6770002711070,State & E. Wacker,Michigan & South Water,23:40:21,-1.3,early,0.039,1.16,False,0,False,False
4157,2026-02-19 23:40:00,146,Berwyn Red Line,41.88793182373047,-87.62448120117188,15250,False,6770002711070,Michigan & South Water,Michigan & Hubbard (Tribune Bldg.),23:42:06,-2.1,early,0.257,0.89,False,0,False,False
4304,2026-02-19 23:38:00,6,Wacker/Columbus,41.787400891703946,-87.58661651611328,22056,False,6770025136070,1100 S Columbus (Pedestrian Underpass),Lake Park & 47th Street,23:44:10,-6.2,early,2.42,1.68,False,0,False,False
4304,2026-02-19 23:40:00,6,Wacker/Columbus,41.79161272915927,-87.5859444358132,23733,False,6770025136070,1100 S Columbus (Pedestrian Underpass),Lake Park & 47th Street,23:44:10,-4.2,early,1.973,0.17,False,0,False,False
4314,2026-02-19 23:38:00,J14,103rd/Stony Island,41.70862183204064,-87.58231060321515,83582,False,6770004532070,103rd Street & Luella,103rd Street & Stony Island Garage Terminal,23:37:30,0.5,on_time,0.095,0.67,False,0,False,False
4314,2026-02-19 23:39:00,J14,103rd/Stony Island,41.70849537849426,-87.58208513259888,83668,False,6770004532070,103rd Street & Luella,103rd Street & Stony Island Garage Terminal,23:37:30,1.5,on_time,0.076,1.62,False,0,False,False
4324,2026-02-19 23:38:00,J14,103rd/Stony Island,41.81652069091797,-87.59493255615234,31985,False,6770022295020,1100 S Columbus (Pedestrian Underpass),Jeffery & 67th Street,23:39:05,-1.1,ghost,5.056,4.05,True,1,False,False
4324,2026-02-19 23:40:00,J14,103rd/Stony Island,41.803428649902344,-87.58186340332031,37982,False,6770022295020,1100 S Columbus (Pedestrian Underpass),Jeffery & 67th Street,23:39:05,0.9,ghost,3.394,4.32,True,1,False,True
4325,2026-02-19 23:38:00,22,Howard,41.957229098758184,-87.66401610503326,34729,False,6770004541070,Clark & Belle Plaine,Clark & Cullom,23:38:57,-1.0,on_time,0.294,0.03,False,0,False,False
4325,2026-02-19 23:40:00,22,Howard,41.961557149887085,-87.66593360900879,36397,False,6770004541070,Clark & Cullom,Clark & Montrose,23:39:53,0.1,on_time,0.03,0.27,False,0,False,False
4334,2026-02-19 23:39:00,151,Union Station,41.879398345947266,-87.63359069824219,55274,False,6770047848070,Adams & Clark,Adams & Wells,23:38:16,0.7,on_time,0.037,1.02,False,0,False,False
4334,2026-02-19 23:39:00,151,Union Station,41.87937545776367,-87.63568878173828,55845,False,6770047848070,Adams & Wells,Adams & S. Wacker,23:39:20,-0.3,on_time,0.071,0.06,False,0,False,False
4338,2026-02-19 23:39:00,146,Berwyn Red Line,41.966612074110245,-87.64891476101346,45894,False,6770015384010,4646 N Marine Drive,Marine Drive & Leland,23:38:36,0.4,on_time,0.083,0.88,False,0,False,False
4338,2026-02-19 23:39:00,146,Berwyn Red Line,41.96743240356445,-87.6491455078125,46199,False,6770015384010,Marine Drive & Leland,Marine Drive & Lawrence,23:39:27,-0.5,on_time,0.217,0.39,False,0,False,False
4338,2026-02-19 23:40:00,146,Berwyn Red Line,41.97174334526062,-87.65046787261963,47813,False,6770015384010,Marine Drive & Ainslie,Marine Drive & Margate,23:40:44,-0.7,on_time,0.083,0.39,False,0,False,False
4342,2026-02-19 23:39:00,151,Devon/Clark,41.9981689453125,-87.6631562516496,54902,False,6770047848070,Adams & Clark,Adams & Wells,23:38:16,0.7,ghost,13.421,1.63,True,1,False,False
4342,2026-02-19 23:39:00,151,Devon/Clark,41.99814987182617,-87.66479691215183,55348,False,6770047848070,Adams & Clark,Adams & Wells,23:38:16,0.7,ghost,13.444,0.9,True,1,False,False
4357,2026-02-19 23:38:00,22,Harrison,41.88454154229933,-87.63094329833984,52851,False,6770040286020,Clark & Kinzie,Clark & Randolph,23:38:32,-0.5,on_time,0.029,0.2,False,0,False,False
4357,2026-02-19 23:39:00,22,Harrison,41.88349742274131,-87.63091278076172,53231,False,6770040286020,Clark & Randolph,Clark & Adams,23:43:34,-4.6,early,0.492,0.18,False,0,False,False
4372,2026-02-19 23:39:00,151,Devon/Clark,41.97815588748816,-87.65503496112245,45612,False,6770033550070,Sheridan & Berwyn,Sheridan & Balmoral,23:39:39,-0.7,on_time,0.217,0.27,False,0,False,False
4372,2026-02-19 23:39:00,151,Devon/Clark,41.98046355551862,-87.65509796142578,46454,False,6770016422010,Michigan & Pearson,Michigan & Superior,23:39:10,-0.2,ghost,9.747,0.33,True,1,False,False
4394,2026-02-19 23:39:00,151,Devon/Clark,41.93600966713645,-87.63941782171077,27363,False,6770026396010,Sheridan & Oakdale,Sheridan & Wellington,23:38:44,0.3,on_time,0.084,0.52,False,0,False,False
4394,2026-02-19 23:39:00,151,Devon/Clark,41.936311201615766,-87.6394306529652,27474,False,6770026396010,Sheridan & Oakdale,Sheridan & Wellington,23:38:44,0.3,on_time,0.051,0.43,False,0,False,False
609,2026-02-19 23:38:00,66,Austin,41.89565211328967,-87.65447708656048,16398,False,6770001025020,Milwaukee & Carpenter,Chicago & Milwaukee (Blue Line),23:40:12,-2.2,early,0.154,1.55,False,0,False,False
609,2026-02-19 23:39:00,66,Austin,41.8962516784668,-87.65546993333466,16746,False,6770001025020,Milwaukee & Carpenter,Chicago & Milwaukee (Blue Line),23:40:12,-1.2,early,0.053,1.0,False,0,False,False
609,2026-02-19 23:40:00,66,Austin,41.89619582446653,-87.65962629175898,17873,False,6770001025020,Chicago & Racine,Chicago & Elizabeth,23:41:25,-1.4,early,0.05,1.24,False,0,False,False
7901,2026-02-19 23:38:00,34,131st & Ellis,41.67990711757115,-87.62056732177734,16871,False,6770043022020,Michigan & 118th Street,Michigan & 119th Street,23:38:53,-0.9,on_time,0.192,0.29,False,0,False,False
7901,2026-02-19 23:40:00,34,131st & Ellis,41.67313279776737,-87.62034712166621,19333,False,6770043022020,Michigan & 121st Street,Michigan & 122nd Street,23:40:11,-0.2,on_time,0.052,0.1,False,0,False,False
7902,2026-02-19 23:38:00,75,79th/Western,41.758160495758055,-87.62634830474853,19500,False,6770029201020,75th Street & State,Lafayette & 75th Street,23:39:48,-1.8,early,0.027,1.66,False,0,False,False
7902,2026-02-19 23:39:00,75,79th/Western,41.75693487613759,-87.62634553300573,19957,False,6770029201020,Lafayette & 75th Street,Lafayette & 76th Street,23:40:14,-1.2,early,0.04,1.1,False,0,False,False
7902,2026-02-19 23:40:00,75,79th/Western,41.752718705397385,-87.62592033973107,21494,False,6770029201020,Lafayette & 78th Street,79th Red Line Station,23:42:00,-2.0,early,0.206,1.48,False,0,False,False
7917,2026-02-19 23:38:00,3,95th Red Line,41.76929975237165,-87.61542750767299,50347,False,6770037163010,King Drive & 25th Street,McCormick Place,23:39:46,-1.8,ghost,9.15,1.47,True,1,False,False
7917,2026-02-19 23:39:00,3,95th Red Line,41.76592280946929,-87.61529541015625,51581,False,6770037163010,Cermak & Prairie,Michigan & Cermak,23:41:38,-2.6,ghost,9.729,1.93,True,1,False,False
7954,2026-02-19 23:38:00,3,95th Red Line,41.80596180966026,-87.61656081885623,36930,False,6770035767070,King Drive & 48th Street,King Drive & 49th Street,23:35:36,2.4,on_time,0.041,2.53,False,0,False,False
7954,2026-02-19 23:40:00,3,95th Red Line,41.801593530373495,-87.61619492827869,38531,False,6770035767070,King Drive & 51st Street,5200 S King Drive,23:37:18,2.7,on_time,0.132,3.11,False,0,False,False
7967,2026-02-19 23:38:00,3,Michigan/Chicago,41.834482036653114,-87.61695861816406,44274,False,6770042248020,King Drive & 59th Street,King Drive & 60th Street,23:39:03,-1.0,ghost,5.416,1.05,True,1,False,False
7967,2026-02-19 23:40:00,3,Michigan/Chicago,41.83933602004755,-87.61705780029297,46047,False,6770042248020,King Drive & 62nd Street,King Drive & 63rd Street (Green Line),23:40:52,-0.9,ghost,6.546,0.62,True,1,False,False
7970,2026-02-19 23:38:00,8,Waveland/Broadway,41.93845210355871,-87.64923095703125,73951,False,6770020429020,Halsted & Clark/Barry,Halsted & Belmont,23:40:30,-2.5,early,0.162,1.81,False,0,False,False
7970,2026-02-19 23:39:00,8,Waveland/Broadway,41.93986436432483,-87.6492016362209,74472,False,6770020429020,Halsted & Belmont,Halsted & Aldine,23:41:07,-2.1,early,0.207,1.5,False,0,False,False
7973,2026-02-19 23:38:00,79,Lakefront,41.7515626937624,-87.57825869605655,50005,False,6770002395070,79th Street & Karlov,79th Street & Tripp,23:37:50,0.2,ghost,12.389,0.39,True,1,False,False
7973,2026-02-19 23:39:00,79,Lakefront,41.75159512068096,-87.57629143564324,50539,False,6770002395070,79th Street & Tripp,79th Street & Kostner,23:38:24,0.6,ghost,12.871,1.11,True,1,False,False
7973,2026-02-19 23:40:00,79,Lakefront,41.751629965645925,-87.57349613734654,51303,False,6770016776010,79th Street & Clyde,79th Street & Paxton,23:42:05,-2.1,early,0.179,1.64,False,0,False,False
7975,2026-02-19 23:39:00,79,Lakefront,41.74947474553035,-87.72016906738281,10835,False,6770005108020,79th Street & Pulaski,79th Street & Springfield,23:38:30,0.5,on_time,0.048,0.63,False,0,False,False
7975,2026-02-19 23:39:00,79,Lakefront,41.74952151324298,-87.71695544268634,11710,False,6770005108020,79th Street & Hamlin,79th Street & Lawndale,23:39:33,-0.5,on_time,0.194,0.05,False,0,False,False
7975,2026-02-19 23:40:00,79,Lakefront,41.749538089918055,-87.71476447063944,12313,False,6770005108020,79th Street & Lawndale,79th Street & Central Park,23:40:13,-0.2,on_time,0.252,0.45,False,0,False,False
7976,2026-02-19 23:38:00,8A,127th,41.66251693946728,-87.63960177656533,37308,False,6770005777070,79th Street & Wentworth,Perry & 79th Street Terminal,23:35:30,2.5,ghost,9.898,3.04,True,1,False,False
7976,2026-02-19 23:40:00,8A,127th,41.662606133355034,-87.63925043741862,37408,False,6770005777070,79th Street & Wentworth,Perry & 79th Street Terminal,23:35:30,4.5,ghost,9.885,4.93,True,1,False,False
7978,2026-02-19 23:38:00,8A,79th Red Line,41.7292845589774,-87.6433585030692,25073,False,6770034556010,Halsted & 110th Street,Halsted & 111th Street,23:38:53,-0.9,on_time,4.096,0.43,False,0,False,False
7978,2026-02-19 23:40:00,8A,79th Red Line,41.73441488092596,-87.64350128173828,26944,False,6770034556010,Halsted & 112th Street,Halsted & 113th Street,23:40:00,0.0,ghost,5.067,0.02,True,1,False,False
7979,2026-02-19 23:38:00,81,Jefferson Park Blue Line,41.968318939208984,-87.72247974292652,21026,False,6770034503020,Lawrence & Lawndale,Lawrence & Hamlin,23:37:45,0.2,on_time,0.044,0.4,False,0,False,False
7979,2026-02-19 23:39:00,81,Jefferson Park Blue Line,41.96831317280614,-87.72335620259129,21263,False,6770034503020,Lawrence & Hamlin,Lawrence & Springfield,23:38:22,0.6,on_time,0.178,1.16,False,0,False,False
7979,2026-02-19 23:40:00,81,Jefferson Park Blue Line,41.9682502746582,-87.72732901065908,22336,False,6770034503020,Lawrence & Springfield,Lawrence & Pulaski,23:39:01,1.0,on_time,0.049,1.12,False,0,False,False
7981,2026-02-19 23:38:00,81,Wilson/Marine,41.96885190691267,-87.67096601213727,25210,False,6770030497070,Lawrence & Kostner,Lawrence & Elston,23:37:55,0.1,ghost,5.719,0.54,True,1,False,False
7981,2026-02-19 23:39:00,81,Wilson/Marine,41.96887662934094,-87.6697089962843,25550,False,6770030497070,Lawrence & Kostner,Lawrence & Elston,23:37:55,1.1,ghost,5.823,1.26,True,1,False,False
7981,2026-02-19 23:40:00,81,Wilson/Marine,41.968900178608145,-87.66812736109684,25981,False,6770005279020,Lawrence & Ashland,Lawrence & Clark,23:41:27,-1.5,early,0.042,1.3,False,0,False,False
7986,2026-02-19 23:38:00,79,Lakefront,41.75200775922355,-87.54544442386951,38371,False,6770025229070,79th Street & Western,79th Street & Campbell,23:40:37,-2.6,ghost,11.587,2.16,True,1,False,False
7986,2026-02-19 23:39:00,79,Lakefront,41.75200775922355,-87.54544442386951,38371,False,6770025229070,79th Street & Western,79th Street & Campbell,23:40:37,-1.6,ghost,11.587,1.16,True,1,False,False
7986,2026-02-19 23:40:00,79,Ashland,41.75192333333333,-87.54472833333334,51,False,6770021539020,79th Street & Lake Shore Drive,79th Street & South Shore,23:40:54,-0.9,ghost,0.323,0.46,True,1,False,True
7997,2026-02-19 23:39:00,77,Cumberland,41.93950579459207,-87.68555905526145,16466,False,6770008462010,Belmont & Oakley,Belmont & Western/Clybourn,23:38:38,0.4,on_time,0.243,0.89,False,0,False,False
7997,2026-02-19 23:39:00,77,Cumberland,41.93950579459207,-87.68555905526145,16466,False,6770008462010,Belmont & Oakley,Belmont & Western/Clybourn,23:38:38,0.4,on_time,0.243,0.89,False,0,False,False
7997,2026-02-19 23:40:00,77,Cumberland,41.939548224733585,-87.6880958958676,17156,False,6770019828010,Belmont & Mason,Belmont & Menard,23:41:23,-1.4,ghost,6.869,1.12,True,1,False,False
8000,2026-02-19 23:38:00,71,69th Red Line,41.69276428222656,-87.55967712402344,0,False,6770001698070,Torrence & 112th Street Terminal,11100 S Torrence,23:40:17,-2.3,early,0.148,2.0,False,0,False,False
8000,2026-02-19 23:39:00,71,69th Red Line,41.69276428222656,-87.55967712402344,0,False,6770001698070,Torrence & 112th Street Terminal,11100 S Torrence,23:40:17,-1.3,early,0.148,1.0,False,0,False,False
8000,2026-02-19 23:40:00,71,69th Red Line,41.695037841796875,-87.55950927734375,874,False,6770001698070,11100 S Torrence,11000 S Torrence,23:40:51,-0.8,on_time,0.056,0.67,False,0,False,False
8001,2026-02-19 23:38:00,6,79th/South Shore,41.75201416015625,-87.54534606933593,69143,False,6770008590010,S. Shore Drive & 79th Street,79th Street & Lake Shore Drive,23:38:00,0.0,on_time,0.039,0.46,False,0,False,False
8001,2026-02-19 23:39:00,6,79th/South Shore,41.75201416015625,-87.54534606933593,69143,False,6770008590010,S. Shore Drive & 79th Street,79th Street & Lake Shore Drive,23:38:00,1.0,on_time,0.039,1.46,False,0,False,False
8002,2026-02-19 23:39:00,15,47th Red Line,41.78712969048079,-87.58660995128542,38640,False,6770006546020,Stony Island & 60th Street,Stony Island & 59th Street,23:36:25,2.6,on_time,0.107,2.9,False,0,False,False
8002,2026-02-19 23:39:00,15,47th Red Line,41.79097607261256,-87.58670673035739,39994,False,6770006546020,5800 S Stony Island,Stony Island & 57th Drive,23:37:21,1.7,on_time,0.042,1.77,False,0,False,False
8003,2026-02-19 23:39:00,95,92nd/Buffalo,41.72195219993591,-87.60720920562744,28610,False,6770044530070,95th Street & Princeton,95th Street & Eggleston,23:36:44,2.3,on_time,2.159,2.35,False,0,False,False
8003,2026-02-19 23:39:00,95,92nd/Buffalo,41.721961099593365,-87.60648846235432,28807,False,6770044530070,95th Street & Eggleston,95th Street & Normal,23:37:15,1.8,on_time,2.438,2.21,False,0,False,False
8003,2026-02-19 23:40:00,95,92nd/Buffalo,41.722096493369655,-87.60440183940686,29403,False,6770044530070,95th Street & Eggleston,95th Street & Normal,23:37:15,2.8,on_time,2.611,2.75,False,0,False,False
8004,2026-02-19 23:39:00,29,95th Red Line,41.87008361816406,-87.62756576538087,14487,False,6770013699020,State & 73rd Street,State & 72nd Street,23:40:10,-1.2,ghost,11.847,0.85,True,1,False,False
8004,2026-02-19 23:39:00,29,95th Red Line,41.868060934132544,-87.62751007080078,15222,False,6770013699020,State & 72nd Street,State & 71st Street,23:40:34,-1.6,ghost,11.434,1.38,True,1,False,False
8016,2026-02-19 23:39:00,67,Ford City,41.76880645751953,-87.64593721047426,22545,False,6770029708010,69th Street & Halsted,69th Street & Peoria,23:39:38,-0.6,on_time,0.063,0.41,False,0,False,False
8016,2026-02-19 23:39:00,67,Ford City,41.76880645751953,-87.64593721047426,22545,False,6770029708010,69th Street & Halsted,69th Street & Peoria,23:39:38,-0.6,on_time,0.063,0.41,False,0,False,False
8016,2026-02-19 23:40:00,67,Ford City,41.76873235233494,-87.6510856503346,23944,False,6770029708010,69th Street & Morgan,69th Street & Aberdeen,23:40:54,-0.9,on_time,0.05,0.76,False,0,False,False
8032,2026-02-19 23:39:00,49,Berwyn,41.78332010904948,-87.68367513020833,11960,False,6770007955020,Western & 61st Street,Western & 59th Street,23:39:35,-0.6,on_time,0.38,0.48,False,0,False,False
8032,2026-02-19 23:40:00,49,Berwyn,41.7906569403571,-87.68388366699219,14629,False,6770007955020,Western & 57th Street,Western & Garfield,23:41:12,-1.2,early,0.343,0.46,False,0,False,False
8037,2026-02-19 23:38:00,63,Stony Island,41.78654479980469,-87.73880767822266,0,False,6770013265070,Midway Orange Line Station,Cicero & 61st Street,23:42:05,-4.1,early,0.572,2.0,False,0,False,False
8037,2026-02-19 23:40:00,63,Stony Island,41.786489386307565,-87.7392199332254,123,False,6770013265070,Midway Orange Line Station,Cicero & 61st Street,23:42:05,-2.1,early,0.549,0.12,False,0,False,False
8043,2026-02-19 23:38:00,9,95th Red Line,41.83413911902386,-87.6657308495563,51785,False,6770025227070,Ashland & 18th Street,Ashland & 15th Street,23:37:25,0.6,on_time,3.058,1.25,False,0,False,False
8043,2026-02-19 23:39:00,9,95th Red Line,41.830411177415115,-87.66563532902644,53147,False,6770025227070,Ashland & 14th Street,Ashland & Roosevelt,23:39:38,-0.6,on_time,4.034,0.64,False,0,False,False
8048,2026-02-19 23:39:00,94,Addison/Rockwell,41.92220240625842,-87.69734191894531,76614,False,6770029477020,71st Street & California,71st Street & Washtenaw,23:39:16,-0.3,ghost,17.54,0.0,True,1,False,False
8048,2026-02-19 23:39:00,94,Addison/Rockwell,41.92220240625842,-87.69734191894531,76614,False,6770029477020,71st Street & California,71st Street & Washtenaw,23:39:16,-0.3,ghost,17.54,0.0,True,1,False,False
8048,2026-02-19 23:40:00,94,Addison/Rockwell,41.92404155731201,-87.69739532470703,77284,False,6770029477020,71st Street & Washtenaw,71st Street & Rockwell,23:39:48,0.2,ghost,17.749,0.45,True,1,False,False
8054,2026-02-19 23:38:00,9,95th Red Line,41.72122781926935,-87.66275024414062,93025,False,6770043814070,Ashland & 95th Street,Ashland & 95th Street Terminal,23:33:30,4.5,on_time,0.073,4.82,False,0,False,False
8054,2026-02-19 23:39:00,9,95th Red Line,41.72114212036133,-87.66239929199219,93150,False,6770046017020,95th Street & Ashland,95th Street & Winston,23:43:56,-4.9,early,0.13,4.64,False,0,False,False
8064,2026-02-19 23:39:00,94,Addison/Rockwell,41.8551152137018,-87.69551430979082,49253,False,6770024927020,California Pink Line Station,California & 19th Street,23:37:33,1.5,on_time,0.04,1.55,False,0,False,False
8064,2026-02-19 23:39:00,94,Addison/Rockwell,41.857000302045776,-87.69562530517578,49939,False,6770024927020,California & 19th Street,California & 18th Street,23:38:18,0.7,on_time,0.034,0.85,False,0,False,False
8064,2026-02-19 23:40:00,94,Addison/Rockwell,41.86099647073185,-87.69574737548828,51403,False,6770024927020,California & Ogden,California & 14th Street,23:40:22,-0.4,on_time,0.168,0.19,False,0,False,False
8066,2026-02-19 23:38:00,9,95th Red Line,41.947853088378906,-87.6689453125,9408,False,6770038613010,95th Street & Throop,95th Street & Loomis,23:37:36,0.4,ghost,25.204,0.7,True,1,False,False
8066,2026-02-19 23:39:00,9,95th Red Line,41.946469116210935,-87.6689208984375,9914,False,6770020315020,Ashland & Addison,Ashland & Roscoe,23:40:25,-1.4,early,0.371,0.28,False,0,False,False
8082,2026-02-19 23:39:00,62,Kinzie/State,41.79403900681881,-87.77288015265214,7559,False,6770037417010,Archer & Meade,Archer & Austin,23:38:58,0.0,on_time,0.055,0.12,False,0,False,False
8082,2026-02-19 23:40:00,62,Kinzie/State,41.794542694091795,-87.76957397460937,8479,False,6770037417010,Archer & Mayfield,Archer & Menard,23:40:06,-0.1,on_time,0.21,0.57,False,0,False,False
8091,2026-02-19 23:39:00,94,74th/Damen,41.876744901216945,-87.69617462158203,29723,False,6770021321020,California & Jackson,California & Harrison,23:40:53,-1.9,early,0.35,0.74,False,0,False,False
8091,2026-02-19 23:39:00,94,74th/Damen,41.876744901216945,-87.69617462158203,29723,False,6770021321020,California & Jackson,California & Harrison,23:40:53,-1.9,early,0.35,0.74,False,0,False,False
8091,2026-02-19 23:40:00,94,74th/Damen,41.87104909173374,-87.69609464448074,31817,False,6770021321020,California & Polk,California & Taylor,23:42:23,-2.4,early,0.193,1.8,False,0,False,False
8102,2026-02-19 23:39:00,82,Devon/Kedzie,41.846221923828125,-87.7148946126302,6478,False,6770019360020,Lawndale & 25th Street,Central Park & 25th Street,23:37:52,1.1,on_time,0.021,1.23,False,0,False,False
8102,2026-02-19 23:39:00,82,Devon/Kedzie,41.84755516052246,-87.71488189697266,6975,False,6770019360020,Central Park & 25th Street,Central Park & 24th Street,23:38:15,0.8,on_time,0.044,0.85,False,0,False,False
8102,2026-02-19 23:40:00,82,Devon/Kedzie,41.85386245315139,-87.71505819784629,9283,False,6770019360020,Central Park & Cermak,Central Park & Ogden (Pink Line),23:39:42,0.3,on_time,0.046,0.4,False,0,False,False
8105,2026-02-19 23:38:00,21,Kedzie,41.85053503513336,-87.7954660654068,4558,False,6770045045020,Cermak & Home,Cermak & Oak Park,23:37:21,0.7,on_time,0.204,1.16,False,0,False,False
8105,2026-02-19 23:40:00,21,Kedzie,41.85056686401367,-87.78926239013671,6250,False,6770045045020,Cermak & Riverside Drive,Cermak & East,23:38:12,1.8,on_time,0.049,1.9,False,0,False,False
8109,2026-02-19 23:38:00,49,79th,41.97607434341331,-87.68921661376953,956,False,6770022312070,79th & Western Terminal,Western & 77th Street,23:38:46,-0.8,ghost,24.699,0.58,True,1,False,False
8109,2026-02-19 23:40:00,49,79th,41.970467703683035,-87.68901203700474,3005,False,6770022312070,Western & 76th Street,Western & 74th Street,23:40:07,-0.1,ghost,23.48,0.05,True,1,False,False
8114,2026-02-19 23:38:00,94,74th/Damen,41.77234739415786,-87.69322204589844,73440,False,6770039361070,California & 66th Street,California & Marquette Rd,23:37:44,0.3,on_time,0.047,0.38,False,0,False,False
8114,2026-02-19 23:39:00,94,74th/Damen,41.77187957763672,-87.69320259094238,73610,False,6770039361070,California & Marquette Rd,California & 68th Street,23:38:22,0.6,on_time,0.2,1.25,False,0,False,False
8114,2026-02-19 23:40:00,94,74th/Damen,41.76810269239472,-87.69311765345131,74989,False,6770039361070,California & Lithuanian Plaza/69th Street,California & 70th Street,23:39:27,0.5,on_time,0.192,1.04,False,0,False,False
8118,2026-02-19 23:38:00,49,79th,41.86675281059451,-87.68609619140625,40849,False,6770041264010,Western & Taylor,Western & Roosevelt,23:36:42,1.3,on_time,0.05,1.44,False,0,False,False
8118,2026-02-19 23:40:00,49,79th,41.86483001708984,-87.68603964412914,41552,False,6770041264010,Western & Roosevelt,Western & 14th Street,23:37:44,2.3,on_time,0.225,2.9,False,0,False,False
8119,2026-02-19 23:39:00,62,Kinzie/State,41.88598134782579,-87.6295091840956,68309,False,6770033886070,Dearborn & Randolph,Dearborn & Wacker/Lake,23:38:50,0.2,on_time,0.025,0.34,False,0,False,False
8119,2026-02-19 23:40:00,62,Kinzie/State,41.88652712233523,-87.6295214713888,68511,False,6770033886070,Dearborn & Wacker/Lake,Dearborn & Marina City,23:40:02,-0.0,on_time,0.175,1.05,False,0,False,False
8126,2026-02-19 23:38:00,9,95th Red Line,41.90215594951923,-87.66751861572266,26136,False,6770026512010,Ashland & 57th Street,Ashland & Garfield,23:39:35,-1.6,ghost,12.012,0.95,True,1,False,False
8126,2026-02-19 23:39:00,9,95th Red Line,41.89746693202427,-87.6674074445452,27844,False,6770026512010,Ashland & Garfield,Ashland & 53rd Street,23:40:16,-1.3,ghost,11.106,1.01,True,1,False,False
8130,2026-02-19 23:39:00,63,Midway Orange Line,41.77940962049696,-87.66672939724393,23478,False,6770039714010,63rd Street & Wolcott,63rd Street & Wood,23:39:54,-0.9,on_time,0.175,0.78,False,0,False,False
8130,2026-02-19 23:40:00,63,Midway Orange Line,41.77934885025024,-87.67154788970947,24791,False,6770039714010,63rd Street & Ashland,63rd Street & Ashland (Green Line),23:41:07,-1.1,early,0.638,0.94,False,0,False,False
8132,2026-02-19 23:38:00,71,112th/Torrence,41.7658805847168,-87.59658276593244,9938,False,6770009287070,71st Street & Greenwood,71st Street & Woodlawn,23:40:06,-2.1,early,0.044,1.98,False,0,False,False
8132,2026-02-19 23:39:00,71,112th/Torrence,41.76591123853411,-87.59564127240863,10195,False,6770009287070,71st Street & Woodlawn,71st Street & Dorchester,23:41:18,-2.3,early,0.364,1.21,False,0,False,False
8132,2026-02-19 23:40:00,71,112th/Torrence,41.76596044457477,-87.58855123105256,12134,False,6770009287070,71st Street & Blackstone,71st Street & Stony Island,23:42:32,-2.5,early,0.249,1.95,False,0,False,False
8135,2026-02-19 23:39:00,12,15th/Indiana,41.861415,-87.622525,44574,False,6770018865020,1440 S Indiana,Indiana & 15th Place,23:40:30,-1.5,early,0.018,1.46,False,0,False,False
8135,2026-02-19 23:40:00,12,15th/Indiana,41.861403333333335,-87.62252833333334,44574,False,6770018865020,1440 S Indiana,Indiana & 15th Place,23:40:30,-0.5,on_time,0.016,0.46,False,0,False,False
8140,2026-02-19 23:38:00,4,95th Red Line,41.8815224387429,-87.62446351484819,4648,False,6770018990020,Michigan & Washington,Michigan & Monroe,23:38:36,-0.6,on_time,0.099,0.1,False,0,False,False
8140,2026-02-19 23:39:00,4,95th Red Line,41.87980924333845,-87.62444323585147,5271,False,6770018990020,Michigan & Monroe,Michigan & Jackson,23:39:45,-0.8,on_time,0.153,0.06,False,0,False,False
8141,2026-02-19 23:38:00,79,Ashland,41.75123977661133,-87.60831257834363,17881,False,6770043059070,79th Street & Francisco,79th Street & California,23:38:49,-0.8,ghost,6.999,0.39,True,1,False,False
8141,2026-02-19 23:39:00,79,Ashland,41.7512092590332,-87.61015319824219,18384,False,6770043059070,79th Street & California,79th Street & Washtenaw,23:39:22,-0.4,ghost,6.646,0.12,True,1,False,False
8141,2026-02-19 23:40:00,79,Ashland,41.75115807273171,-87.61477147882636,19655,False,6770043059070,79th Street & Talman,79th Street & Campbell,23:40:33,-0.5,ghost,5.869,0.02,True,1,False,False
8155,2026-02-19 23:38:00,79,Lakefront,41.751251220703125,-87.60760094984522,20537,False,6770025810010,79th Street & Campbell,79th Street & Western Terminal,23:39:30,-1.5,ghost,6.18,0.75,True,1,False,False
8155,2026-02-19 23:39:00,79,Lakefront,41.75127180567328,-87.60627516260686,20901,False,6770025810010,79th Street & Campbell,79th Street & Western Terminal,23:39:30,-0.5,ghost,6.29,0.04,True,1,False,False
8155,2026-02-19 23:40:00,79,Lakefront,41.7513313293457,-87.60030806692023,22526,False,6770003524020,79th Red Line Station,79th Street & Lafayette,23:39:45,0.2,on_time,2.141,0.48,False,0,False,False
8172,2026-02-19 23:38:00,74,Halsted,41.925498962402344,-87.64924808424347,46248,False,6770018985070,Lincoln & Belden/Orchard,Fullerton & Halsted,23:36:30,1.5,on_time,0.016,1.61,False,0,False,False
8172,2026-02-19 23:38:00,74,Halsted,41.925498962402344,-87.64924808424347,46248,False,6770018985070,Lincoln & Belden/Orchard,Fullerton & Halsted,23:36:30,1.5,on_time,0.016,1.61,False,0,False,False
8172,2026-02-19 23:40:00,74,Halsted,41.925498962402344,-87.64924808424347,46248,False,6770035701020,Lincoln & Belden/Orchard,Fullerton & Halsted,23:40:00,0.0,ghost,0.016,0.11,True,1,True,False
8174,2026-02-19 23:39:00,20,Austin,41.882110595703125,-87.62515258789062,17,False,6770041003020,Madison & Austin Terminal,Madison & Mayfield,23:39:46,-0.8,ghost,12.116,0.02,True,1,False,False
8174,2026-02-19 23:40:00,20,Austin,41.882110595703125,-87.62515258789062,17,False,6770012268010,Madison & Austin Terminal,Madison & Mayfield,23:40:46,-0.8,ghost,12.116,0.02,True,1,False,False
8180,2026-02-19 23:38:00,12,Central/Harrison,41.87282192707062,-87.76485192775726,45500,False,6770003363020,Central & Fillmore,Central & Harrison Terminal,23:35:30,2.5,on_time,0.028,2.8,False,0,False,False
8180,2026-02-19 23:39:00,12,Central/Harrison,41.8722643601267,-87.76523047999332,45780,False,6770003363020,Central & Fillmore,Central & Harrison Terminal,23:35:30,3.5,on_time,0.049,3.68,False,0,False,False
8185,2026-02-19 23:38:00,67,Ford City,41.75612,-87.73297333333333,51539,False,6770041961020,67th Street & Oglesby,67th Street & Oglesby Terminal,23:39:30,-1.5,ghost,13.842,1.26,True,1,False,False
8185,2026-02-19 23:39:00,67,Ford City,41.75612,-87.73297333333333,51539,False,6770041961020,67th Street & Oglesby,67th Street & Oglesby Terminal,23:39:30,-0.5,ghost,13.842,0.26,True,1,False,False
8185,2026-02-19 23:40:00,67,Ford City,41.756121666666665,-87.732975,51539,False,6770046148020,76th Street & Daley College,Ford City,23:40:30,-0.5,on_time,0.003,0.47,False,0,False,False
8187,2026-02-19 23:39:00,55,Midway Orange Line,41.794368041189095,-87.64164352416992,18558,False,6770031008020,Garfield & Lowe,Garfield & Union,23:37:33,1.5,on_time,0.136,1.96,False,0,False,False
8187,2026-02-19 23:40:00,55,Midway Orange Line,41.794309533160664,-87.64502085810122,19476,False,6770031008020,Garfield & Union,Garfield & Halsted,23:38:12,1.8,on_time,0.044,1.95,False,0,False,False
8191,2026-02-19 23:39:00,35,36th/Kedzie,41.82734680175781,-87.69573479729729,25936,False,6770036828070,California & 36th Place,36th Place & Francisco,23:36:23,2.6,on_time,0.109,3.06,False,0,False,False
8191,2026-02-19 23:40:00,35,36th/Kedzie,41.82723136026351,-87.70135685654937,27469,False,6770036828070,36th Place & Sacramento,36th Place & Albany,23:37:48,2.2,on_time,0.05,2.36,False,0,False,False
8210,2026-02-19 23:39:00,85,Bryn Mawr,41.93133697509766,-87.76625518798828,21496,False,6770026236070,Central & Diversey,Central & George,23:39:47,-0.8,on_time,0.188,0.24,False,0,False,False
8210,2026-02-19 23:39:00,85,Bryn Mawr,41.93310287033302,-87.76631076094033,22140,False,6770026236070,Central & George,Central & Wellington,23:40:21,-1.3,early,0.194,0.82,False,0,False,False
8210,2026-02-19 23:40:00,85,Bryn Mawr,41.93901712754194,-87.76650941138173,24299,False,6770026236070,Central & Belmont,Central & School,23:42:13,-2.2,early,0.195,1.68,False,0,False,False
8211,2026-02-19 23:38:00,77,Cumberland,41.938994863758914,-87.71221160888672,23797,False,6770009768020,Belmont & Kimball (Blue Line),Belmont & St. Louis,23:38:02,-0.0,on_time,0.251,0.63,False,0,False,False
8211,2026-02-19 23:39:00,77,Cumberland,41.938961029052734,-87.71221782543041,23797,False,6770011371070,Belmont & Kimball (Blue Line),Belmont & St. Louis,23:41:29,-2.5,early,0.251,1.52,False,0,False,False
8211,2026-02-19 23:40:00,77,Cumberland,41.93924331665039,-87.7156114578247,24816,False,6770016686070,Belmont & Cicero,Belmont & Knox,23:38:34,1.4,on_time,2.291,1.61,False,0,False,False
8228,2026-02-19 23:38:00,67,69th Red Line,41.769117401867376,-87.62589449998809,34756,False,6770008108020,69th Street & Perry,69th Red Line Station,23:41:00,-3.0,early,0.042,2.52,False,0,False,False
8228,2026-02-19 23:39:00,67,69th Red Line,41.769117401867376,-87.62589449998809,34756,False,6770008108020,69th Street & Perry,69th Red Line Station,23:41:00,-2.0,early,0.042,1.52,False,0,False,False
8228,2026-02-19 23:40:00,67,69th Red Line,41.769117401867376,-87.62589449998809,34756,False,6770008108020,69th Street & Perry,69th Red Line Station,23:41:00,-1.0,on_time,0.042,0.52,False,0,False,False
8232,2026-02-19 23:38:00,77,Diversey/Lake Shore,41.94002847504198,-87.646843090392,51195,False,6770037802070,Belmont & Oketo,Belmont & Olcott,23:37:43,0.3,ghost,13.826,0.49,True,1,False,False
8232,2026-02-19 23:39:00,77,Diversey/Lake Shore,41.94003677368164,-87.64629966334293,51343,False,6770029705020,Belmont & Orchard,Belmont & Broadway,23:40:43,-1.7,early,0.185,1.15,False,0,False,False
8232,2026-02-19 23:40:00,77,Diversey/Lake Shore,41.94012069702149,-87.63951887907805,53178,False,6770037802070,Belmont & Overhill (77th Avenue),Belmont & Ozanam (78th Avenue),23:38:44,1.3,ghost,15.038,1.46,True,1,False,False
8262,2026-02-19 23:39:00,52,Jackson,41.828100545065745,-87.70446014404297,19190,False,6770012195020,Kedzie & 36th Street,3426 S Kedzie,23:39:45,-0.8,on_time,0.229,0.04,False,0,False,False
8262,2026-02-19 23:40:00,52,Jackson,41.8353268357574,-87.7047119140625,21825,False,6770012195020,3201 S Kedzie,Kedzie & 31st Street,23:41:30,-1.5,early,0.202,1.01,False,0,False,False
8268,2026-02-19 23:38:00,82,Devon/Kedzie,41.836506666666665,-87.72566666666667,0,False,6770031537010,Devon & Kedzie Terminal,McCormick & Devon,23:36:16,1.7,ghost,17.891,2.5,True,1,False,False
8268,2026-02-19 23:39:00,82,Devon/Kedzie,41.836506666666665,-87.725665,0,False,6770008771070,Devon & Kedzie Terminal,McCormick & Devon,23:42:39,-3.7,ghost,17.891,3.0,True,1,False,False
8268,2026-02-19 23:40:00,82,Devon/Kedzie,41.836505,-87.725665,0,False,6770008771070,Devon & Kedzie Terminal,McCormick & Devon,23:42:39,-2.7,ghost,17.892,2.0,True,1,False,False
8278,2026-02-19 23:38:00,21,North Riverside Mall,41.85222625732422,-87.67264406798316,17774,False,6770021139010,Cermak & Wood,Cermak & Wolcott,23:38:21,-0.3,on_time,0.043,0.22,False,0,False,False
8278,2026-02-19 23:39:00,21,North Riverside Mall,41.85218708855765,-87.67549310411725,18548,False,6770021139010,Cermak & Wolcott,Cermak & Damen,23:39:01,-0.0,on_time,0.05,0.12,False,0,False,False
8279,2026-02-19 23:38:00,60,Cicero/24th Pl,41.84604339599609,-87.7440414428711,49661,True,6770021055010,4630 W 26th Street,Cicero & 24th Place Terminal,23:39:00,-1.0,on_time,0.069,0.59,False,0,False,False
8279,2026-02-19 23:40:00,60,Cicero/24th Pl,41.84604339599609,-87.7440414428711,49661,True,6770021055010,4630 W 26th Street,Cicero & 24th Place Terminal,23:39:00,1.0,ghost,0.069,1.41,True,1,True,False
8289,2026-02-19 23:38:00,82,31st/Pulaski,41.891846743496984,-87.7113265991211,39779,False,6770033434020,Homan & Ohio,Homan & Franklin,23:39:05,-1.1,early,0.172,0.53,False,0,False,False
8289,2026-02-19 23:39:00,82,31st/Pulaski,41.890829535091626,-87.71130763783174,40149,False,6770033434020,Homan & Ohio,Homan & Franklin,23:39:05,-0.1,on_time,0.059,0.08,False,0,False,False
8289,2026-02-19 23:40:00,82,31st/Pulaski,41.88991854483621,-87.71127185486911,40481,False,6770033434020,Homan & Franklin,Homan & Franklin,23:39:26,0.6,on_time,0.032,0.73,False,0,False,False
8294,2026-02-19 23:38:00,82,Devon/Kedzie,41.95027646151456,-87.71281831914729,45876,False,6770004883070,Kimball & Grace,Kimball & Byron,23:39:01,-1.0,on_time,0.188,0.5,False,0,False,False
8294,2026-02-19 23:39:00,82,Devon/Kedzie,41.95204435984294,-87.71285247802734,46520,False,6770004883070,Kimball & Byron,Kimball & Irving Park,23:39:30,-0.5,on_time,0.191,0.05,False,0,False,False
8294,2026-02-19 23:40:00,82,Devon/Kedzie,41.957014083862305,-87.71301651000977,48330,False,6770016621010,Homan & Arthington,Homan & Fillmore,23:39:55,0.1,ghost,9.908,0.27,True,1,False,False
8295,2026-02-19 23:39:00,60,Cicero/24th Pl,41.88195634499574,-87.63245117970003,6234,False,6770007580010,Madison & Dearborn/State,Madison & LaSalle,23:39:47,-0.8,on_time,0.018,0.62,False,0,False,False
8295,2026-02-19 23:40:00,60,Cicero/24th Pl,41.88191986083984,-87.63623809814453,7267,False,6770007580010,Madison & Franklin,Madison & Canal,23:42:06,-2.1,early,0.231,1.12,False,0,False,False
8303,2026-02-19 23:38:00,36,LaSalle Metra Station,41.876930236816406,-87.6288833618164,52223,False,6770015691010,State & Van Buren,Van Buren & Clark,23:39:10,-1.2,early,0.174,0.35,False,0,False,False
8303,2026-02-19 23:40:00,36,LaSalle Metra Station,41.876853942871094,-87.6333236694336,53431,False,6770015691010,Van Buren & Financial Place,Financial Place & Ida B Wells Drive (LaSalle St Station),23:41:30,-1.5,early,0.165,0.13,False,0,False,False
8306,2026-02-19 23:39:00,53,Peterson,41.989975,-87.72843333333333,90440,False,6770048484070,76th Street & Daley College,Ford City,23:38:00,1.0,ghost,26.058,1.25,True,1,False,False
8306,2026-02-19 23:40:00,53,Peterson,41.989975,-87.72843333333333,90440,False,6770048484070,76th Street & Daley College,Ford City,23:38:00,2.0,ghost,26.058,2.25,True,1,False,False
8310,2026-02-19 23:38:00,21,North Riverside Mall,41.85187149047851,-87.69861227567078,24827,False,6770038633020,Cermak & Springfield,Cermak & Hamlin,23:37:55,0.1,on_time,1.769,0.31,False,0,False,False
8310,2026-02-19 23:39:00,21,North Riverside Mall,41.85181219681449,-87.70279013592264,25962,False,6770038633020,Cermak & Lawndale,Cermak & Central Park,23:38:58,0.0,on_time,0.995,0.48,False,0,False,False
8312,2026-02-19 23:39:00,60,Cicero/24th Pl,41.84430717019474,-87.72498501048369,42101,False,6770025339070,Washington & Canal,Washington & Franklin,23:40:15,-1.2,ghost,8.575,0.35,True,1,False,False
8312,2026-02-19 23:40:00,60,Cicero/24th Pl,41.84416961669922,-87.73088916979339,43698,False,6770025339070,Washington & Lasalle,Washington & Clark/Dearborn,23:41:59,-2.0,ghost,9.398,1.24,True,1,False,False
8325,2026-02-19 23:38:00,71,112th/Torrence,41.73771755511944,-87.55146026611328,32814,False,6770036901070,73rd Street & Exchange,73rd Street & Yates,23:41:44,-3.7,early,3.037,3.71,False,0,False,False
8325,2026-02-19 23:39:00,71,112th/Torrence,41.73738098144531,-87.5508006327861,33119,False,6770036901070,73rd Street & Yates,Yates & 72nd Street,23:42:26,-3.4,early,3.259,3.01,False,0,False,False
8325,2026-02-19 23:40:00,71,112th/Torrence,41.73139176001916,-87.54989624023438,35514,False,6770004995070,Commercial & 86th Street,Commercial & 92nd Street,23:44:35,-4.6,early,0.393,3.59,False,0,False,False
8330,2026-02-19 23:38:00,29,Navy Pier,41.890869140625,-87.62841796875,62182,False,6770003690070,Dearborn & Hubbard,Illinois & State,23:36:42,1.3,on_time,0.055,1.49,False,0,False,False
8330,2026-02-19 23:40:00,29,Navy Pier,41.890275,-87.62813666666666,62265,False,6770003690070,Dearborn & Hubbard,Illinois & State,23:36:42,3.3,on_time,0.069,3.41,False,0,False,False
8333,2026-02-19 23:38:00,71,69th Red Line,41.760314874481736,-87.5577198497036,29729,False,6770004995070,83rd Street & Coles,83rd Street & Commercial,23:39:10,-1.2,early,1.812,1.14,False,0,False,False
8333,2026-02-19 23:39:00,71,69th Red Line,41.75951678936298,-87.55929624117337,30249,False,6770036901070,75th Street & Coles,Exchange & 74th Place,23:40:00,-1.0,on_time,0.123,0.61,False,0,False,False
8333,2026-02-19 23:40:00,71,69th Red Line,41.76098845725836,-87.56177130410838,31327,False,6770036901070,Exchange & 74th Street,73rd Street & Exchange,23:41:11,-1.2,early,0.259,0.38,False,0,False,False
8349,2026-02-19 23:38:00,76,Logan Square,41.931151666666665,-87.805665,0,False,6770032540020,Diversey & Neva Terminal,Diversey & Nordica,23:44:14,-6.2,early,0.23,5.5,False,0,False,False
8349,2026-02-19 23:39:00,76,Logan Square,41.931151666666665,-87.805665,0,False,6770032540020,Diversey & Neva Terminal,Diversey & Nordica,23:44:14,-5.2,early,0.23,4.5,False,0,False,False
8349,2026-02-19 23:40:00,76,Logan Square,41.931151666666665,-87.805665,15,False,6770032540020,Diversey & Neva Terminal,Diversey & Nordica,23:44:14,-4.2,early,0.23,3.51,False,0,False,False
8359,2026-02-19 23:38:00,76,Harlem,41.932090759277344,-87.70007089468149,19240,False,6770001150020,Diversey & Francisco,Diversey & Sacramento,23:40:01,-2.0,early,0.192,1.39,False,0,False,False
8359,2026-02-19 23:39:00,76,Harlem,41.93206024169922,-87.7023672708651,19862,False,6770001150020,Diversey & Sacramento,Diversey & Albany,23:40:36,-1.6,early,0.201,1.02,False,0,False,False
8359,2026-02-19 23:40:00,76,Harlem,41.93206348419189,-87.70256334940592,19916,False,6770001150020,Diversey & Sacramento,Diversey & Albany,23:40:36,-0.6,on_time,0.185,0.07,False,0,False,False
8366,2026-02-19 23:39:00,77,Cumberland,41.937311666666666,-87.835515,57648,True,6770037802070,Belmont & Pontiac,Belmont & Cumberland Terminal,23:41:00,-2.0,early,0.005,1.96,False,0,False,False
8366,2026-02-19 23:39:00,77,Cumberland,41.937311666666666,-87.835515,57648,True,6770037802070,Belmont & Pontiac,Belmont & Cumberland Terminal,23:41:00,-2.0,early,0.005,1.96,False,0,False,False
8366,2026-02-19 23:40:00,77,Cumberland,41.937311666666666,-87.835515,57648,True,6770037802070,Belmont & Pontiac,Belmont & Cumberland Terminal,23:41:00,-1.0,on_time,0.005,0.96,False,0,False,False
8369,2026-02-19 23:40:00,77,Cumberland,41.93723333333333,-87.835575,57620,False,6770037802070,Belmont & Pontiac,Belmont & Cumberland Terminal,23:41:00,-1.0,on_time,0.005,0.94,False,0,False,False
8370,2026-02-19 23:38:00,76,Logan Square,41.93194068350443,-87.7146593419517,24842,False,6770024256020,Diversey & St. Louis,Milwaukee & Diversey/Kimball,23:39:07,-1.1,early,0.232,0.58,False,0,False,False
8370,2026-02-19 23:39:00,76,Logan Square,41.93197995699369,-87.71226959228515,25489,False,6770024256020,Diversey & St. Louis,Milwaukee & Diversey/Kimball,23:39:07,-0.1,on_time,0.043,0.02,False,0,False,False
8370,2026-02-19 23:40:00,76,Logan Square,41.93080827666492,-87.71025811172113,26191,False,6770024256020,Milwaukee & Spaulding,Logan Square Blue Line Station,23:40:00,0.0,on_time,0.233,0.52,False,0,False,False
8378,2026-02-19 23:38:00,85,Bryn Mawr,41.98242404009845,-87.76835632324219,42722,False,6770038097020,Central & Catalpa,Central & Bryn Mawr,23:38:32,-0.5,on_time,0.048,0.44,False,0,False,False
8378,2026-02-19 23:39:00,85,Bryn Mawr,41.982940673828125,-87.76658630371094,43390,False,6770038097020,Central & Bryn Mawr,Bryn Mawr & Linder,23:38:58,0.0,on_time,0.048,0.13,False,0,False,False
8378,2026-02-19 23:40:00,85,Bryn Mawr,41.98344063392052,-87.76434326171875,44088,False,6770005756010,Central & Van Buren,Central & Harrison Terminal,23:46:00,-6.0,ghost,12.328,4.82,True,1,False,False
8381,2026-02-19 23:39:00,81,Jefferson Park Blue Line,41.968849182128906,-87.67194768002159,7311,False,6770034207020,Lawrence & Ashland,Lawrence & Hermitage,23:39:55,-0.9,on_time,0.044,0.78,False,0,False,False
8381,2026-02-19 23:39:00,81,Jefferson Park Blue Line,41.9688328229464,-87.67276147695688,7533,False,6770034207020,Lawrence & Hermitage,Lawrence & Ravenswood,23:40:19,-1.3,early,0.109,1.0,False,0,False,False
8381,2026-02-19 23:40:00,81,Jefferson Park Blue Line,41.96878528594971,-87.67684745788574,8642,False,6770034207020,Lawrence & Wolcott,Lawrence & Damen,23:41:40,-1.7,early,0.217,1.01,False,0,False,False
8382,2026-02-19 23:39:00,80,Harlem,41.95295604906584,-87.78641971788909,36668,False,6770030857020,Irving Park & Narragansett,Irving Park & Natchez,23:39:06,-0.1,on_time,0.198,0.37,False,0,False,False
8382,2026-02-19 23:39:00,80,Harlem,41.95295604906584,-87.78641971788909,36668,False,6770030857020,Irving Park & Narragansett,Irving Park & Natchez,23:39:06,-0.1,on_time,0.198,0.37,False,0,False,False
8382,2026-02-19 23:40:00,80,Harlem,41.952863925840795,-87.78994918451076,37614,False,6770030857020,Irving Park & Natchez,Irving Park & Neenah,23:39:30,0.5,on_time,0.068,0.63,False,0,False,False
8383,2026-02-19 23:39:00,119,95th Red Line,41.678367614746094,-87.68048858642578,43,False,6770007584020,Western & 119th Street Terminal,119th Street & Western,23:42:23,-3.4,early,0.136,3.02,False,0,False,False
8383,2026-02-19 23:39:00,119,95th Red Line,41.678367614746094,-87.68048858642578,43,False,6770007584020,Western & 119th Street Terminal,119th Street & Western,23:42:23,-3.4,early,0.136,3.02,False,0,False,False
8383,2026-02-19 23:40:00,119,95th Red Line,41.678367614746094,-87.68048858642578,43,False,6770007584020,Western & 119th Street Terminal,119th Street & Western,23:42:23,-2.4,early,0.136,2.02,False,0,False,False
8390,2026-02-19 23:38:00,34,95th Red Line,41.722286470474735,-87.62484741210938,34225,False,6770048337020,95th Street & Michigan,95th Red Line Station,23:34:00,4.0,on_time,0.043,4.06,False,0,False,False
8390,2026-02-19 23:39:00,34,95th Red Line,41.72266387939453,-87.6248550415039,34301,False,6770048337020,95th Street & Michigan,95th Red Line Station,23:34:00,5.0,on_time,0.001,5.03,False,0,False,False
8398,2026-02-19 23:38:00,8,79th,41.9319098336356,-87.64898742191376,6987,False,6770018251020,Halsted & Diversey,Halsted & Schubert,23:38:14,-0.2,on_time,0.042,0.07,False,0,False,False
8398,2026-02-19 23:40:00,8,79th,41.92702756609235,-87.64881896972656,8763,False,6770018251020,Halsted & Altgeld,Halsted & Lincoln/Fullerton,23:40:35,-0.6,on_time,0.217,0.11,False,0,False,False
8400,2026-02-19 23:38:00,15,47th Red Line,41.707908630371094,-87.57724410768539,1321,False,6770048211070,Wells & 48th Place,Wells & 50th Street,23:38:00,0.0,ghost,11.609,0.73,True,1,False,False
8400,2026-02-19 23:40:00,15,47th Red Line,41.70809173583984,-87.56566874186198,4475,False,6770048211070,51st Street & Federal,51st Street & State,23:40:20,-0.3,ghost,11.572,0.28,True,1,False,False
8406,2026-02-19 23:39:00,29,Navy Pier,41.73389883602367,-87.62409210205078,4071,False,6770042821070,Grand & St. Clair,Grand & Rush,23:42:01,-3.0,ghost,17.556,2.67,True,1,False,False
8406,2026-02-19 23:40:00,29,Navy Pier,41.73722855588223,-87.62416661039312,5283,False,6770042821070,State & Grand (Red Line),State & Hubbard,23:43:47,-3.8,ghost,17.008,3.49,True,1,False,False
8412,2026-02-19 23:38:00,66,Austin,41.89523903099266,-87.73354545799461,37964,False,6770032117010,Chicago & Kildare,Chicago & Kostner,23:38:06,-0.1,on_time,0.223,0.35,False,0,False,False
8412,2026-02-19 23:39:00,66,Austin,41.895217070708405,-87.73773873818887,39106,False,6770032117010,Chicago & Kostner,Chicago & Kilbourn,23:38:28,0.5,on_time,0.047,0.64,False,0,False,False
8412,2026-02-19 23:40:00,66,Austin,41.89506149291992,-87.74285507202148,40498,False,6770032117010,Chicago & Kilbourn,Chicago & Kilpatrick,23:39:24,0.6,on_time,0.048,0.69,False,0,False,False
8432,2026-02-19 23:39:00,119,Western,41.7109495134496,-87.61991483773758,5517,False,6770026597020,Michigan & 101st Street,Michigan & 102nd Street,23:39:26,-0.4,on_time,0.199,0.04,False,0,False,False
8432,2026-02-19 23:39:00,119,Western,41.7091683474454,-87.61997604370117,6171,False,6770026597020,Michigan & 102nd Street,Michigan & 103rd Street,23:39:54,-0.9,on_time,0.207,0.44,False,0,False,False
8432,2026-02-19 23:40:00,119,Western,41.70737353238192,-87.62026006525213,6835,False,6770026597020,Michigan & 103rd Street,Michigan & 104th Street,23:40:32,-0.5,on_time,0.212,0.1,False,0,False,False
8443,2026-02-19 23:39:00,28,47th/Lake Park,41.77842751864729,-87.58641578411233,26815,False,6770027815020,Stony Island & 65th Street,Stony Island & 64th Street,23:39:53,-0.9,on_time,0.039,0.67,False,0,False,False
8443,2026-02-19 23:39:00,28,47th/Lake Park,41.78301527693465,-87.58651217898807,28500,False,6770027815020,Stony Island & 62nd Street,Stony Island & 60th Street,23:42:16,-3.3,early,0.335,2.26,False,0,False,False
8444,2026-02-19 23:38:00,6,Wacker/Columbus,41.88095474243164,-87.62422943115234,61312,False,6770029523020,Michigan & Monroe,Michigan & Madison,23:38:16,-0.3,on_time,0.158,0.44,False,0,False,False
8444,2026-02-19 23:39:00,6,Wacker/Columbus,41.88314916573319,-87.6242301791322,62065,False,6770029523020,Michigan & Madison,Michigan & Randolph,23:39:49,-0.8,on_time,0.172,0.33,False,0,False,False
8445,2026-02-19 23:38:00,28,103rd/Stony Island,41.70852502187093,-87.58145523071289,40712,False,6770014789010,Stony Island & 95th Street,103rd Street & Stony Island Garage Terminal,23:39:30,-1.5,early,0.023,1.48,False,0,False,False
8445,2026-02-19 23:39:00,28,103rd/Stony Island,41.70852502187093,-87.58145523071289,40712,False,6770014789010,Stony Island & 95th Street,103rd Street & Stony Island Garage Terminal,23:39:30,-0.5,on_time,0.023,0.48,False,0,False,False
8449,2026-02-19 23:39:00,87,Western,41.73616409301758,-87.64061014275802,27407,False,6770012412010,87th Street & Wallace,87th Street & Union,23:38:45,0.2,on_time,0.041,0.38,False,0,False,False
8449,2026-02-19 23:39:00,87,Western,41.73615301223028,-87.64126356821211,27586,False,6770012412010,87th Street & Union,87th Street & Halsted,23:39:27,-0.5,on_time,0.233,0.21,False,0,False,False
8449,2026-02-19 23:40:00,87,Western,41.73603439331055,-87.64675993077896,29086,False,6770012412010,87th Street & Vincennes,87th Street & Morgan,23:41:06,-1.1,early,0.173,0.51,False,0,False,False
8455,2026-02-19 23:39:00,95,95th Red Line,41.73263168334961,-87.68251037597656,3913,False,6770006358020,93rd Street & Manistee,93rd Street & Marquette Avenue,23:37:45,1.2,ghost,10.36,1.44,True,1,False,False
8455,2026-02-19 23:39:00,95,95th Red Line,41.72850799560547,-87.682373046875,5424,False,6770006358020,93rd Street & Colfax,93rd Street & Essex,23:38:47,0.2,ghost,9.89,0.34,True,1,False,False
8455,2026-02-19 23:40:00,95,95th Red Line,41.72309112548828,-87.68224334716797,7405,False,6770006358020,93rd Street & Oglesby,93rd Street & Paxton,23:40:22,-0.4,ghost,9.278,0.21,True,1,False,False
8457,2026-02-19 23:39:00,79,Ford City,41.75040435791016,-87.65975997027229,31948,False,6770010072070,79th Street & Peoria,79th Street & Halsted,23:38:48,0.2,on_time,1.291,0.3,False,0,False,False
8457,2026-02-19 23:39:00,79,Ford City,41.75036176045736,-87.66266123453777,32740,False,6770027758010,79th Street & Morgan,79th Street & Peoria,23:39:27,-0.5,on_time,1.337,0.29,False,0,False,False
8457,2026-02-19 23:40:00,79,Ford City,41.75030899047851,-87.6659761754478,33644,False,6770010072070,79th Street & Union,79th Street & Normal,23:40:32,-0.5,on_time,2.409,0.21,False,0,False,False
8458,2026-02-19 23:38:00,8,Waveland/Broadway,41.9034714212223,-87.6568902463329,58877,False,6770018968020,Halsted & 49th Street,Halsted & 50th Street,23:38:10,-0.2,ghost,11.159,0.01,True,1,False,False
8458,2026-02-19 23:39:00,8,Waveland/Broadway,41.90360432286416,-87.65057545323526,60597,False,6770018968020,Halsted & 52nd Street,Halsted & 53rd Street,23:39:42,-0.7,ghost,11.782,0.3,True,1,False,False
8467,2026-02-19 23:38:00,4,Illinois Center,41.849594822636355,-87.62364366319444,65130,False,6770021855020,Michigan & 24th Street,Michigan & 23rd Street,23:40:18,-2.3,early,0.174,1.87,False,0,False,False
8467,2026-02-19 23:40:00,4,Illinois Center,41.85417458318895,-87.62371826171875,66806,False,6770021855020,Michigan & Cermak,Michigan & 21st Street,23:41:08,-1.1,early,0.039,1.03,False,0,False,False
8469,2026-02-19 23:38:00,28,103rd/Stony Island,41.776923015199856,-87.58637540093784,12509,False,6770025032010,Stony Island & 86th Street,Stony Island & 85th Street,23:37:30,0.5,on_time,4.032,0.76,False,0,False,False
8469,2026-02-19 23:40:00,28,103rd/Stony Island,41.771210289001466,-87.5863037109375,14593,False,6770005081020,Stony Island & 68th Street,Stony Island & 69th Street,23:39:59,0.0,on_time,0.159,0.65,False,0,False,False
8471,2026-02-19 23:39:00,53A,115th,41.79819869995117,-87.723388671875,1163,False,6770019265020,5200 S Pulaski,Pulaski & 53rd Street,23:39:34,-0.6,on_time,0.15,0.11,False,0,False,False
8471,2026-02-19 23:40:00,53A,115th,41.794639587402344,-87.72329711914062,2458,False,6770019265020,Pulaski & 54th Street,Pulaski & 55th Street,23:40:50,-0.8,on_time,0.146,0.29,False,0,False,False
8473,2026-02-19 23:38:00,8A,127th,41.75106430053711,-87.6275634765625,0,False,6770044044020,Lowe & 127th Street,127th Street & Emerald,23:39:37,-1.6,ghost,9.812,1.0,True,1,False,False
8473,2026-02-19 23:40:00,8A,127th,41.75080490112305,-87.63270568847656,1412,False,6770044044020,127th Street & Halsted,Halsted & 126th Street,23:40:32,-0.5,ghost,9.575,0.32,True,1,False,False
8474,2026-02-19 23:39:00,119,Western,41.67760330775999,-87.67984008789062,33845,False,6770044397020,119th Street & Bell,Western & 119th Street Terminal,23:39:00,0.0,on_time,0.008,0.19,False,0,False,False
8474,2026-02-19 23:39:00,119,Western,41.67832374572754,-87.67989085270808,34110,False,6770044397020,119th Street & Bell,Western & 119th Street Terminal,23:39:00,0.0,on_time,0.085,0.06,False,0,False,False
8474,2026-02-19 23:40:00,119,95th Red Line,41.67839166666667,-87.680215,0,False,6770007584020,Western & 119th Street Terminal,119th Street & Western,23:42:23,-2.4,ghost,0.138,2.0,True,1,False,True
8475,2026-02-19 23:38:00,6,79th/South Shore,41.88518142700195,-87.6222915649414,1603,False,6770019752010,S. Shore Drive & 79th Street,S. Shore Drive & Cheltenham,23:39:29,-1.5,ghost,15.814,0.75,True,1,False,False
8483,2026-02-19 23:38:00,71,69th Red Line,41.765663146972656,-87.62094298405434,49153,False,6770005792010,71st Street & Indiana,71st Street & Michigan,23:38:22,-0.4,on_time,0.044,0.26,False,0,False,False
8483,2026-02-19 23:39:00,71,69th Red Line,41.76565074920654,-87.62169933319092,49359,False,6770028201020,71st Street & Michigan,71st Street & State,23:39:51,-0.8,on_time,0.245,0.2,False,0,False,False
8483,2026-02-19 23:40:00,71,69th Red Line,41.76880916796232,-87.62573623657227,51624,False,6770005792010,71st Street & State,69th Red Line Station,23:40:30,-0.5,on_time,0.057,0.37,False,0,False,False
8485,2026-02-19 23:38:00,29,Navy Pier,41.87056706168435,-87.62742163918234,53968,False,6770014514020,State & 9th Street,State & Balbo,23:43:24,-5.4,early,0.269,4.51,False,0,False,False
8485,2026-02-19 23:39:00,29,Navy Pier,41.872296780956034,-87.62747192382812,54599,False,6770014514020,State & 9th Street,State & Balbo,23:43:24,-4.4,early,0.077,4.15,False,0,False,False
8488,2026-02-19 23:39:00,34,131st & Ellis,41.659327295091416,-87.61852179633246,25023,False,6770046093070,Michigan & 107th Street,10600 S Michigan,23:39:28,-0.5,on_time,4.713,0.19,False,0,False,False
8488,2026-02-19 23:40:00,34,131st & Ellis,41.659327295091416,-87.61852179633246,25023,False,6770018729010,Michigan & 107th Street,10600 S Michigan,23:40:40,-0.7,on_time,4.713,0.43,False,0,False,False
8498,2026-02-19 23:38:00,6,79th/South Shore,41.83343505859375,-87.60765838623047,26515,False,6770002100020,5440 S S Hyde Park,S Hyde Park & 54th Street,23:40:13,-2.2,early,4.367,2.14,False,0,False,False
8498,2026-02-19 23:39:00,6,79th/South Shore,41.82204055786133,-87.59896850585938,31353,False,6770008745070,Lake Park & 48th Street,Lake Park & 47th Street Terminal,23:37:57,1.0,on_time,1.557,1.18,False,0,False,False
8507,2026-02-19 23:38:00,8,79th,41.75437491280692,-87.6441421508789,77040,False,6770045774020,Halsted & 76th Street,Halsted & 77th Street,23:35:32,2.5,on_time,0.025,2.59,False,0,False,False
8507,2026-02-19 23:39:00,8,79th,41.75062390031486,-87.64402770996094,78407,False,6770045774020,Halsted & 79th Street,Halsted & 79th Street Terminal,23:37:00,2.0,on_time,0.094,2.37,False,0,False,False
8521,2026-02-19 23:38:00,15,103rd/Stony Island,41.77692097630994,-87.58637553247912,24631,False,6770049820070,Stony Island & 65th Street,67th Street & Cornell,23:40:02,-2.0,early,0.415,0.54,False,0,False,False
8521,2026-02-19 23:40:00,15,103rd/Stony Island,41.77334976196289,-87.58574561353,26084,False,6770049820070,Stony Island & 65th Street,67th Street & Cornell,23:40:02,-0.0,on_time,0.047,0.1,False,0,False,False
8525,2026-02-19 23:39:00,95,92nd/Buffalo,41.72633361816406,-87.5573501586914,8676,False,6770035161070,93rd Street & Clyde,93rd Street & Jeffery,23:40:11,-1.2,early,1.491,1.0,False,0,False,False
8525,2026-02-19 23:39:00,95,92nd/Buffalo,41.72663879394531,-87.55367279052734,9722,False,6770011166010,95th Street & Leavitt,95th Street & Hoyne,23:39:04,-0.1,ghost,10.015,0.52,True,1,False,False
8525,2026-02-19 23:40:00,95,92nd/Buffalo,41.72822952270508,-87.55169677734375,10645,False,6770011166010,95th Street & Hoyne,95th Street & Damen,23:39:31,0.5,ghost,10.016,0.75,True,1,False,False
8529,2026-02-19 23:38:00,79,Lakefront,41.75195829329952,-87.54821162069997,58192,False,6770012340010,Cicero & 76th Street,76th Street & Ford City Movie Theatre,23:38:20,-0.3,ghost,15.391,0.3,True,1,False,False
8529,2026-02-19 23:39:00,79,Lakefront,41.751052122849686,-87.54452808086688,59253,False,6770012340010,76th Street & Ford City Movie Theatre,Ford City,23:39:30,-0.5,ghost,15.659,0.04,True,1,False,False
8529,2026-02-19 23:40:00,79,Lakefront,41.75200711266469,-87.54546252751754,59840,False,6770031772020,76th Street & Ford City Movie Theatre,Ford City,23:40:30,-0.5,ghost,15.579,0.46,True,1,False,False
8541,2026-02-19 23:39:00,95,87th/Damen,41.7214290982201,-87.65070724487305,33472,False,6770005376020,93rd Street & Woodlawn,Woodlawn & 94th Street,23:38:53,0.1,on_time,4.637,0.54,False,0,False,False
8541,2026-02-19 23:39:00,95,87th/Damen,41.72138977050781,-87.65301792796065,34102,False,6770005376020,Woodlawn & 94th Street,95th Street & Woodlawn,23:39:43,-0.7,on_time,4.861,0.04,False,0,False,False
8541,2026-02-19 23:40:00,95,87th/Damen,41.721331345407584,-87.65778230365954,35402,False,6770005376020,1300 E 95th Street,95th Street & Dorchester,23:40:41,-0.7,ghost,5.562,0.25,True,1,False,False
8543,2026-02-19 23:39:00,79,Lakefront,41.75006103515625,-87.68301391601562,22503,False,6770001504010,79th Street & Michigan,79th Red Line Station,23:39:00,0.0,on_time,4.797,0.0,False,0,False,False
8543,2026-02-19 23:39:00,79,Lakefront,41.750897250958346,-87.68272342966564,22866,False,6770001504010,79th Street & Lafayette,79th Street & Perry,23:39:30,-0.5,on_time,4.599,0.33,False,0,False,False
8543,2026-02-19 23:40:00,79,Lakefront,41.75010721307052,-87.68119932475842,23518,False,6770001504010,79th Street & Perry,79th Street & Wentworth,23:40:09,-0.2,on_time,4.262,0.13,False,0,False,False
8544,2026-02-19 23:39:00,53A,Pulaski Orange Line,41.68414166666667,-87.71714,0,False,6770019265020,Pulaski Orange Line Station,5200 S Pulaski,23:38:58,0.0,ghost,12.765,1.0,True,1,False,False
8544,2026-02-19 23:40:00,53A,Pulaski Orange Line,41.68414166666667,-87.71714,0,False,6770019265020,Pulaski Orange Line Station,5200 S Pulaski,23:38:58,1.0,ghost,12.765,2.0,True,1,False,False
8547,2026-02-19 23:38:00,66,Navy Pier,41.89244842529297,-87.61138916015625,49548,False,6770014186020,Illinois & Lake Shore,Navy Pier Terminal,23:36:00,2.0,on_time,0.116,2.72,False,0,False,False
8547,2026-02-19 23:39:00,66,Navy Pier,41.89289855957031,-87.61003112792969,50019,False,6770014186020,Illinois & Lake Shore,Navy Pier Terminal,23:36:00,3.0,on_time,0.066,3.22,False,0,False,False
8547,2026-02-19 23:40:00,66,Navy Pier,41.89231491088867,-87.6100082397461,50177,False,6770015029070,Illinois & Lake Shore,Navy Pier Terminal,23:44:00,-4.0,early,0.001,3.94,False,0,False,False
8557,2026-02-19 23:38:00,8,79th,41.846907479422434,-87.64768888512437,42276,False,6770030890020,Halsted & 16th Street,Halsted & 14th Place,23:38:44,-0.7,on_time,1.704,0.6,False,0,False,False
8557,2026-02-19 23:39:00,8,79th,41.846907479422434,-87.64768888512437,42276,False,6770030890020,Halsted & 16th Street,Halsted & 14th Place,23:38:44,0.3,on_time,1.704,0.4,False,0,False,False
8560,2026-02-19 23:38:00,87,91st/Commercial,41.73691177368164,-87.58627492731267,43619,False,6770026513070,87th Street & Blackstone,87th Street & Stony Island (Nearside),23:36:57,1.0,on_time,0.039,1.15,False,0,False,False
8560,2026-02-19 23:39:00,87,91st/Commercial,41.73691940307617,-87.58553695678711,43821,False,6770026513070,87th Street & Stony Island (Nearside),87th Street & Stony Island (Farside),23:37:14,1.8,on_time,0.06,1.96,False,0,False,False
8560,2026-02-19 23:40:00,87,91st/Commercial,41.73685706289191,-87.58487340023643,44015,False,6770023658020,87th Street & Stony Island (Farside),87th Street & East End,23:41:50,-1.8,early,0.163,1.25,False,0,False,False
8567,2026-02-19 23:39:00,53,Ford City,41.89558029174805,-87.72608184814453,34731,False,6770037762070,Pulaski Orange Line Station,5200 S Pulaski,23:37:09,1.8,ghost,10.759,2.4,True,1,False,False
8567,2026-02-19 23:40:00,53,Ford City,41.892180702903055,-87.72596463290128,35972,False,6770037762070,5200 S Pulaski,Pulaski & 53rd Street,23:37:36,2.4,ghost,10.603,2.6,True,1,False,False
8568,2026-02-19 23:38:00,53,Peterson,41.892904593727806,-87.72599792480469,54913,False,6770005934010,Pulaski & Erie,Pulaski & Chicago,23:40:47,-2.8,early,0.262,1.97,False,0,False,False
8568,2026-02-19 23:40:00,53,Peterson,41.8953523307011,-87.72606658935547,55808,False,6770005934010,Pulaski & Chicago,Pulaski & Iowa,23:41:27,-1.5,early,0.194,0.84,False,0,False,False
8571,2026-02-19 23:38:00,66,Navy Pier,41.89607068112022,-87.66713333129883,29277,False,6770029768070,Chicago & Ashland,Chicago & Bishop,23:41:16,-3.3,early,0.247,2.52,False,0,False,False
8571,2026-02-19 23:39:00,66,Navy Pier,41.89611029624939,-87.66472212473552,29933,False,6770029768070,Chicago & Ashland,Chicago & Bishop,23:41:16,-2.3,early,0.048,2.13,False,0,False,False
8571,2026-02-19 23:40:00,66,Navy Pier,41.89617156982422,-87.66165968088004,30763,False,6770029768070,Chicago & Noble,Chicago & Elizabeth,23:42:23,-2.4,early,0.173,1.89,False,0,False,False
8578,2026-02-19 23:39:00,54,Montrose,41.93625259399414,-87.74665832519531,32866,False,6770042136010,Cicero & Wellington,Cicero & Barry,23:39:18,-0.3,on_time,0.075,0.18,False,0,False,False
8578,2026-02-19 23:40:00,54,Montrose,41.94101669539267,-87.7467146916176,34609,False,6770042136010,Cicero & School,Cicero & Roscoe,23:40:42,-0.7,on_time,0.184,0.45,False,0,False,False
8580,2026-02-19 23:39:00,53,Ford City,41.84296905994415,-87.72451174259186,53944,False,6770005934010,Pulaski & Carroll,Pulaski & Ferdinand,23:39:10,-0.2,ghost,5.237,0.15,True,1,False,False
8580,2026-02-19 23:40:00,53,Ford City,41.839807739257814,-87.72442977905274,55104,False,6770005934010,Pulaski & Erie,Pulaski & Chicago,23:40:47,-0.8,ghost,6.167,0.16,True,1,False,False
8581,2026-02-19 23:39:00,54,Montrose,41.870548774456154,-87.74478202030576,8883,False,6770014854020,Cicero & Polk,Cicero & Lexington (Blue Line),23:38:37,0.4,on_time,0.06,0.58,False,0,False,False
8581,2026-02-19 23:40:00,54,Montrose,41.87131278298118,-87.74479619806463,9162,False,6770013812010,Cicero & Polk,Cicero & Fifth Avenue,23:41:02,-1.0,on_time,0.309,0.86,False,0,False,False
8583,2026-02-19 23:39:00,54,24th Pl,41.85226068496704,-87.74429874420166,39700,False,6770004419020,Cicero & 21st Place (Pink Line),Cicero & Cermak,23:39:41,-0.7,on_time,0.159,0.21,False,0,False,False
8583,2026-02-19 23:40:00,54,24th Pl,41.846504818309434,-87.744140625,41810,False,6770004419020,Cicero & 23rd Street,Cicero & 24th Place Terminal,23:41:00,-1.0,on_time,0.017,0.78,False,0,False,False
8586,2026-02-19 23:38:00,74,Pulaski,41.92364501953125,-87.7837905883789,4940,False,6770044385070,Fullerton & Narragansett,Fullerton & Mobile,23:37:53,0.1,on_time,0.058,0.24,False,0,False,False
8586,2026-02-19 23:39:00,74,Pulaski,41.92369842529297,-87.78117370605469,5650,False,6770006090020,Fullerton & Mobile,Fullerton & Melvina,23:39:04,-0.1,on_time,0.065,0.13,False,0,False,False
8586,2026-02-19 23:40:00,74,Pulaski,41.92375183105469,-87.77693176269531,6800,False,6770006090020,Fullerton & Meade,Fullerton & Austin,23:40:09,-0.2,on_time,0.125,0.17,False,0,False,False
8592,2026-02-19 23:39:00,60,Cicero/24th Pl,41.85023625691732,-87.6713467915853,27044,False,6770022339010,Blue Island & Wood,Blue Island & Wolcott,23:39:02,-0.0,on_time,0.168,0.28,False,0,False,False
8592,2026-02-19 23:40:00,60,Cicero/24th Pl,41.848572226131665,-87.67564526726218,28357,False,6770022339010,Blue Island & Damen,Blue Island & Hoyne,23:40:13,-0.2,on_time,0.219,0.43,False,0,False,False
8604,2026-02-19 23:38:00,8,79th,41.75606131046376,-87.64420204974235,76426,False,6770045774020,Halsted & 76th Street,Halsted & 77th Street,23:35:32,2.5,on_time,0.212,3.14,False,0,False,False
8604,2026-02-19 23:39:00,8,79th,41.752606322799906,-87.6441631593566,77689,False,6770045774020,Halsted & 78th Street,Halsted & 79th Street,23:36:35,2.4,on_time,0.205,3.01,False,0,False,False
8607,2026-02-19 23:39:00,53,Peterson,41.88972568511963,-87.72590637207031,53755,False,6770005934010,Pulaski & Carroll,Pulaski & Ferdinand,23:39:10,-0.2,on_time,0.037,0.03,False,0,False,False
8607,2026-02-19 23:40:00,53,Peterson,41.8948204452927,-87.72608102334512,55613,False,6770005934010,Pulaski & Erie,Pulaski & Chicago,23:40:47,-0.8,on_time,0.051,0.65,False,0,False,False
8609,2026-02-19 23:38:00,4,95th Red Line,41.801134167295515,-87.60639213793206,37637,False,6770028722020,Cottage Grove & Payne,Cottage Grove & 52nd Street,23:38:05,-0.1,on_time,0.079,0.15,False,0,False,False
8609,2026-02-19 23:39:00,4,95th Red Line,41.79564576990464,-87.60625547521255,39640,False,6770022303070,Cottage Grove & 54th Street,Cottage Grove & 55th Street,23:39:21,-0.3,on_time,0.062,0.18,False,0,False,False
8612,2026-02-19 23:38:00,66,Austin,41.891868333333335,-87.61968,2880,False,6770018081020,Grand & Fairbanks/Columbus,Fairbanks & Erie,23:39:28,-1.5,early,0.251,0.16,False,0,False,False
8612,2026-02-19 23:39:00,66,Austin,41.89247131347656,-87.62024688720703,3073,False,6770018081020,Grand & Fairbanks/Columbus,Fairbanks & Erie,23:39:28,-0.5,on_time,0.18,0.52,False,0,False,False
8612,2026-02-19 23:40:00,66,Austin,41.8951416015625,-87.62033081054688,4045,False,6770034683020,Chicago & Long,Chicago & Lockwood,23:40:47,-0.8,ghost,11.408,0.39,True,1,False,False
8613,2026-02-19 23:39:00,53A,115th,41.714921133858816,-87.72122955322266,31560,False,6770032942020,Pulaski & 98th Street,Pulaski & 99th Street,23:41:19,-2.3,early,0.183,2.0,False,0,False,False
8613,2026-02-19 23:40:00,53A,115th,41.70955544329704,-87.72110748291016,33518,False,6770032942020,Pulaski & 101st Street,Pulaski & 102nd Street,23:42:21,-2.3,early,0.217,2.04,False,0,False,False
8615,2026-02-19 23:38:00,74,Grand/Nordica,41.92422866821289,-87.75574915959285,28905,False,6770034776070,Fullerton & California,Fullerton & Washtenaw,23:37:13,0.8,on_time,4.99,0.88,False,0,False,False
8615,2026-02-19 23:39:00,74,Grand/Nordica,41.924171447753906,-87.75790514264789,29491,False,6770035406020,Fullerton & Laramie,Fullerton & Lockwood,23:39:53,-0.9,on_time,0.056,0.72,False,0,False,False
8615,2026-02-19 23:40:00,74,Grand/Nordica,41.9240857174522,-87.76284709729646,30833,False,6770034776070,Fullerton & Campbell,Fullerton & Western,23:39:43,0.3,ghost,6.207,0.51,True,1,False,False
8621,2026-02-19 23:38:00,8,79th,41.89119867845015,-87.64766901189631,25817,False,6770026076010,Halsted & 41st Street,Halsted & Pershing,23:39:01,-1.0,ghost,7.548,0.29,True,1,False,False
8621,2026-02-19 23:40:00,8,79th,41.890076723965734,-87.64763641357422,26230,False,6770002362070,Halsted & Milwaukee/Grand (Blue Line),Halsted & Fulton Market,23:42:02,-2.0,early,0.352,0.17,False,0,False,False
8622,2026-02-19 23:38:00,72,Clark,41.91130447387695,-87.6312255859375,47103,False,6770032654020,North Ave & Neva,Harlem & North Ave,23:36:39,1.3,ghost,14.434,1.67,True,1,False,False
8622,2026-02-19 23:39:00,72,Clark,41.91130447387695,-87.6312255859375,47103,False,6770004350070,North Ave & LaSalle,North Ave & Clark Terminal,23:40:30,-1.5,early,0.003,1.12,False,0,False,False
8622,2026-02-19 23:40:00,72,Clark,41.91130447387695,-87.6312255859375,47103,False,6770004350070,North Ave & LaSalle,North Ave & Clark Terminal,23:40:30,-0.5,on_time,0.003,0.12,False,0,False,False
8624,2026-02-19 23:39:00,79,Lakefront,41.75054931640625,-87.64905467786286,32257,False,6770010072070,79th Street & Halsted,79th Street & Union,23:39:32,-0.5,on_time,0.634,0.01,False,0,False,False
8624,2026-02-19 23:39:00,79,Lakefront,41.75054931640625,-87.64897999010589,32276,False,6770010072070,79th Street & Halsted,79th Street & Union,23:39:32,-0.5,on_time,0.628,0.03,False,0,False,False
8624,2026-02-19 23:40:00,79,Lakefront,41.75061622032752,-87.64421844482422,33581,False,6770010072070,79th Street & Union,79th Street & Normal,23:40:32,-0.5,on_time,0.604,0.16,False,0,False,False
8634,2026-02-19 23:39:00,82,31st/Pulaski,41.91928976232355,-87.71196174621582,29648,False,6770020459010,Kimball & Dickens,Kimball & Armitage,23:42:01,-3.0,early,0.233,2.3,False,0,False,False
8634,2026-02-19 23:39:00,82,31st/Pulaski,41.9191404070173,-87.71192932128906,29687,False,6770020459010,Kimball & Dickens,Kimball & Armitage,23:42:01,-3.0,early,0.217,2.33,False,0,False,False
