vid,tmstmp,rt,des,lat,lon,pdist,dly,matched_trip_id,prev_stop_name,next_stop_name,scheduled_arrival_next_minutes,delay_minutes,on_time_status,dist_from_next_stop_km,time_match_score_minutes,is_ghost,ghost_score,ghost_frozen,ghost_jump
1007,2026-02-19 23:38:00,79,Ford City,41.75489807128906,-87.73253631591797,58681,False,6770042248020,King Drive & 59th Street,King Drive & 60th Street,1419.050048828125,-1.1,early,10.269,1.05,False,0,False,False
1007,2026-02-19 23:39:00,79,Ford City,41.756141662597656,-87.73239135742188,59165,False,6770043123020,Michigan & Balbo,Michigan & Ida B Wells Drive,1417.38330078125,1.6,on_time,16.025,0.86,False,0,False,False
1007,2026-02-19 23:40:00,79,Lakefront,41.755924224853516,-87.73309326171875,0,False,6770014570020,Fairbanks & Erie,Fairbanks & Superior,1415.2833251953125,4.7,on_time,18.136,2.92,False,1,False,True
1020,2026-02-19 23:38:00,76,Harlem,41.93118667602539,-87.77283732096355,41131,False,6770015156020,Michigan & 9th Street,Michigan & 11th Street,1418.38330078125,-0.4,on_time,14.101,0.21,False,0,False,False
1020,2026-02-19 23:39:00,76,Harlem,41.931147926732116,-87.77532958984375,41806,False,6770038772070,McCormick Place,King Drive & 25th Street,1418.550048828125,0.4,on_time,16.027,1.33,False,0,False,False
1020,2026-02-19 23:40:00,76,Harlem,41.93110949652536,-87.7784367970058,42648,False,6770035767070,King Drive & 48th Street,King Drive & 49th Street,1415.5999755859375,4.4,on_time,19.349,2.53,False,0,False,False
1033,2026-02-19 23:38:00,85,Harrison,41.974525451660156,-87.76671123504639,5144,False,6770037163010,King Drive & 25th Street,McCormick Place,1419.7667236328125,-1.8,early,18.349,1.47,False,0,False,False
1033,2026-02-19 23:39:00,85,Harrison,41.972435873062885,-87.76480602827229,6066,False,6770031275020,Michigan & 98th Street,State & 95th Street,1421.0,-2.0,early,30.26,2.21,False,0,False,False
1033,2026-02-19 23:40:00,85,Harrison,41.970634093651405,-87.76321220397949,6854,False,6770012057020,Michigan & Jackson,Michigan & Monroe,1415.683349609375,4.3,on_time,15.243,3.21,False,0,False,False
1039,2026-02-19 23:38:00,77,Diversey/Lake Shore,41.93941518238613,-87.69601862771171,37849,False,6770015144010,Cottage Grove & 56th Street,Cottage Grove & 55th Street,1420.11669921875,-2.1,early,17.674,1.99,False,0,False,False
1039,2026-02-19 23:39:00,77,Diversey/Lake Shore,41.93941116333008,-87.69528566557786,38048,False,6770021855020,Michigan & 24th Street,Michigan & 23rd Street,1420.300048828125,-1.3,early,11.468,1.87,False,0,False,False
1039,2026-02-19 23:40:00,77,Diversey/Lake Shore,41.93944799900055,-87.69062662124634,39310,False,6770018990020,Michigan & Washington,Michigan & Monroe,1418.5999755859375,1.4,on_time,8.526,0.1,False,0,False,False
1046,2026-02-19 23:38:00,77,Diversey/Lake Shore,41.93804168701172,-87.80404472351074,8521,False,6770021552020,Michigan & 26th Street,Michigan & 28th Street,1417.449951171875,0.6,on_time,18.284,0.7,False,0,False,False
1046,2026-02-19 23:39:00,77,Diversey/Lake Shore,41.938079833984375,-87.80139057056324,9245,False,6770028722020,Cottage Grove & Payne,Cottage Grove & 52nd Street,1418.0833740234375,0.9,on_time,22.247,0.15,False,0,False,False
1046,2026-02-19 23:40:00,77,Diversey/Lake Shore,41.93809127807617,-87.80073165893555,9424,False,6770046984010,Cottage Grove & 79th Street,Cottage Grove & 80th Street,1417.0,3.0,on_time,26.484,1.14,False,0,False,False
1092,2026-02-19 23:38:00,4,Illinois Center,41.87836296613826,-87.62421062380768,75600,False,6770019752010,S. Shore Drive & 79th Street,S. Shore Drive & Cheltenham,1419.4832763671875,-1.5,early,15.18,0.75,False,0,False,False
1092,2026-02-19 23:39:00,4,Illinois Center,41.880591652610086,-87.62425162575461,76409,False,6770002100020,5440 S S Hyde Park,S Hyde Park & 54th Street,1420.2166748046875,-1.2,early,9.734,2.14,False,0,False,False
1095,2026-02-19 23:38:00,3,95th Red Line,41.718207768031526,-87.62322499800702,73425,False,6770025305010,Stony Island & 64th Street,Stony Island & 65th Street,1415.5999755859375,2.4,on_time,7.222,2.55,False,0,False,False
1095,2026-02-19 23:40:00,3,95th Red Line,41.718207768031526,-87.62322499800702,73425,False,6770008590010,S. Shore Drive & 79th Street,79th Street & Lake Shore Drive,1418.0,2.0,on_time,7.5,0.46,False,1,True,False
1104,2026-02-19 23:38:00,20,Austin,41.88158416748047,-87.66482053484235,10807,False,6770025136070,1100 S Columbus (Pedestrian Underpass),Lake Park & 47th Street,1424.1666259765625,-6.2,early,10.11,1.68,False,0,False,False
1104,2026-02-19 23:40:00,20,Austin,41.881360735212056,-87.67397635323661,13302,False,6770029523020,Michigan & Monroe,Michigan & Madison,1418.2667236328125,1.7,on_time,4.121,0.44,False,0,False,False
1108,2026-02-19 23:38:00,20,Michigan,41.8817253112793,-87.65062713623047,33775,False,6770018251020,Halsted & Diversey,Halsted & Schubert,1418.2332763671875,-0.2,on_time,5.54,0.07,False,0,False,False
1109,2026-02-19 23:38:00,72,Pulaski,41.90980911254883,-87.72793579101562,20771,False,6770026076010,Halsted & 41st Street,Halsted & Pershing,1419.0167236328125,-1.0,on_time,11.777,0.29,False,0,False,False
1116,2026-02-19 23:38:00,35,36th/Kedzie,41.830902099609375,-87.64054517392759,8228,False,6770030890020,Halsted & 16th Street,Halsted & 14th Place,1418.7332763671875,-0.7,on_time,3.519,0.6,False,0,False,False
1116,2026-02-19 23:40:00,35,36th/Kedzie,41.83073043823242,-87.64781471535012,10222,False,6770018968020,Halsted & 52nd Street,Halsted & 53rd Street,1419.699951171875,0.3,on_time,3.676,1.6,False,0,False,False
1126,2026-02-19 23:38:00,53,Peterson,41.824581347013776,-87.72400665283203,30027,False,6770045774020,Halsted & 76th Street,Halsted & 77th Street,1415.5333251953125,2.5,on_time,10.251,3.14,False,0,False,False
1126,2026-02-19 23:40:00,53,Peterson,41.83283374184057,-87.72426792613247,33048,False,6770045774020,Halsted & 76th Street,Halsted & 77th Street,1415.5333251953125,4.5,on_time,10.981,2.59,False,0,False,False
1182,2026-02-19 23:38:00,29,95th Red Line,41.722774505615234,-87.62433386908637,68778,False,6770030890020,Halsted & 14th Place,Halsted & Maxwell,1419.699951171875,-1.7,early,15.889,0.78,False,0,False,False
1182,2026-02-19 23:40:00,29,95th Red Line,41.722774505615234,-87.62433386908637,68778,False,6770018968020,Halsted & 49th Street,Halsted & 50th Street,1418.1666259765625,1.8,on_time,9.143,0.01,False,1,True,False
1212,2026-02-19 23:38:00,4,95th Red Line,41.750008477105034,-87.60526487562392,56196,False,6770020429020,Halsted & Clark/Barry,Halsted & Belmont,1420.5,-2.5,early,21.427,1.81,False,0,False,False
1212,2026-02-19 23:40:00,4,95th Red Line,41.747731844584145,-87.60520617167155,57028,False,6770044044020,Lowe & 127th Street,127th Street & Emerald,1419.61669921875,0.4,on_time,9.821,1.0,False,0,False,False
1213,2026-02-19 23:38:00,79,Lakefront,41.7517423918753,-87.56442306980942,32299,False,6770026281020,Halsted & 102nd Street,Halsted & 103rd Street,1419.5833740234375,-1.6,early,8.216,1.01,False,0,False,False
1213,2026-02-19 23:39:00,79,Lakefront,41.751773834228516,-87.56177811395554,33023,False,6770005777070,79th Street & Wentworth,Perry & 79th Street Terminal,1415.5,3.5,on_time,5.461,3.04,False,0,False,False
1213,2026-02-19 23:40:00,79,Lakefront,41.75185158139183,-87.5558573404948,34633,False,6770034556010,Halsted & 110th Street,Halsted & 111th Street,1418.88330078125,1.1,on_time,9.764,0.43,False,0,False,False
1219,2026-02-19 23:39:00,87,91st/Commercial,41.735939025878906,-87.65344702679178,25297,False,6770002022020,Chicago & Austin Terminal,Chicago & Mayfield,1419.183349609375,-0.2,on_time,20.203,0.5,False,0,False,False
1219,2026-02-19 23:39:00,87,91st/Commercial,41.735939025878906,-87.65344702679178,25297,False,6770043227070,Chicago & Kilpatrick,Chicago & Kilbourn,1418.0833740234375,0.9,on_time,19.044,0.04,False,0,False,False
1219,2026-02-19 23:40:00,87,91st/Commercial,41.735971089955925,-87.65086447226035,26001,False,6770034982020,Chicago & Oakley,Chicago & Western,1418.25,1.8,on_time,18.029,0.25,False,0,False,False
1221,2026-02-19 23:38:00,8A,127th,41.70883377738621,-87.64295959472656,19680,False,6770029768070,Chicago & Ashland,Chicago & Bishop,1421.2667236328125,-3.3,early,20.892,2.52,False,0,False,False
1221,2026-02-19 23:39:00,8A,127th,41.705238342285156,-87.64288659189262,21001,False,6770014186020,Illinois & Lake Shore,Navy Pier Terminal,1416.0,3.0,on_time,20.979,2.72,False,0,False,False
1225,2026-02-19 23:38:00,81,Wilson/Marine,41.96799087524414,-87.75048405573918,3644,False,6770018081020,Grand & Fairbanks/Columbus,Fairbanks & Erie,1419.4666748046875,-1.5,early,13.551,0.16,False,0,False,False
1225,2026-02-19 23:39:00,81,Wilson/Marine,41.96803970336914,-87.74816284179687,4273,False,6770043227070,Chicago & Kilpatrick,Chicago & Kilbourn,1418.0833740234375,0.9,on_time,8.154,0.16,False,0,False,False
1225,2026-02-19 23:40:00,81,Wilson/Marine,41.96812057495117,-87.7401008605957,6463,False,6770001025020,Milwaukee & Carpenter,Chicago & Milwaukee (Blue Line),1420.199951171875,-0.2,on_time,10.583,1.55,False,0,False,False
1245,2026-02-19 23:38:00,70,Austin,41.90330410003662,-87.67158842086792,12545,False,6770029768070,Chicago & Damen,Chicago & Wolcott,1418.4666748046875,-0.5,on_time,0.866,0.39,False,0,False,False
1245,2026-02-19 23:39:00,70,Austin,41.903310546875,-87.67240264892578,12768,False,6770032117010,Chicago & Kildare,Chicago & Kostner,1418.0999755859375,0.9,on_time,5.359,0.35,False,0,False,False
1245,2026-02-19 23:40:00,70,Austin,41.90324783325195,-87.67724833768956,14091,False,6770021471010,Fairbanks & Erie,Fairbanks & Superior,1417.2833251953125,2.7,on_time,4.788,0.91,False,0,False,False
1256,2026-02-19 23:38:00,79,Ford City,41.751129639454376,-87.62563108786559,22608,False,6770043227070,Chicago & Kilbourn,Chicago & Kostner,1418.316650390625,-0.3,on_time,18.431,0.14,False,0,False,False
1256,2026-02-19 23:39:00,79,Ford City,41.75088882446289,-87.62755533854167,23167,False,6770001815010,67th Street & Bennett,67th Street & Cregier,1418.699951171875,0.3,on_time,4.576,0.5,False,0,False,False
1256,2026-02-19 23:40:00,79,Ford City,41.75078768048968,-87.63351309640068,24789,False,6770029708010,69th Street & Halsted,69th Street & Peoria,1419.63330078125,0.4,on_time,2.286,0.41,False,0,False,False
1278,2026-02-19 23:38:00,8,Waveland/Broadway,41.862361214377664,-87.64676666259766,42438,False,6770041961020,67th Street & Oglesby,67th Street & Oglesby Terminal,1419.5,-1.5,early,11.835,1.26,False,0,False,False
1278,2026-02-19 23:39:00,8,Waveland/Broadway,41.86677782463305,-87.64688873291016,44057,False,6770008108020,69th Street & Perry,69th Red Line Station,1421.0,-2.0,early,11.032,2.52,False,0,False,False
1288,2026-02-19 23:38:00,79,Western,41.751731872558594,-87.56626691316303,6435,False,6770009146020,Division & Paulina,Division & Wood,1418.9000244140625,-0.9,on_time,19.004,0.78,False,0,False,False
1288,2026-02-19 23:39:00,79,Western,41.751690660204204,-87.56800283704486,6904,False,6770026803020,Division & Pine,Division & Central,1419.0999755859375,-0.1,on_time,23.431,0.72,False,0,False,False
1288,2026-02-19 23:40:00,79,Western,41.75162887573242,-87.57360553741455,8431,False,6770009287070,71st Street & Greenwood,71st Street & Woodlawn,1420.0999755859375,-0.1,on_time,2.443,1.98,False,0,False,False
1308,2026-02-19 23:38:00,4,95th Red Line,41.84355576184331,-87.62358856201172,18544,False,6770036901070,73rd Street & Exchange,73rd Street & Yates,1421.7332763671875,-3.7,early,10.169,3.71,False,0,False,False
1308,2026-02-19 23:40:00,4,95th Red Line,41.83655887179904,-87.62345886230469,21100,False,6770001698070,Torrence & 112th Street Terminal,11100 S Torrence,1420.2833251953125,-0.3,on_time,16.711,2.0,False,0,False,False
1321,2026-02-19 23:38:00,15,103rd/Stony Island,41.80921936035156,-87.63191223144531,37,False,6770004995070,83rd Street & Coles,83rd Street & Commercial,1419.1666259765625,-1.2,early,9.801,1.14,False,0,False,False
1321,2026-02-19 23:39:00,15,103rd/Stony Island,41.80921936035156,-87.63191223144531,37,False,6770005792010,71st Street & Indiana,71st Street & Michigan,1418.36669921875,0.6,on_time,4.921,0.26,False,0,False,False
1328,2026-02-19 23:39:00,53A,Pulaski Orange Line,41.74850117076527,-87.72187319668856,24381,False,6770014121020,North Ave & Kingsbury,North Ave & Throop,1418.1500244140625,0.8,on_time,18.747,1.07,False,0,False,False
1328,2026-02-19 23:40:00,53A,Pulaski Orange Line,41.75445347740536,-87.7220580691383,26502,False,6770009244020,North Ave & Kildare,North Ave & Kostner/Grand,1419.066650390625,0.9,on_time,17.323,0.6,False,0,False,False
1338,2026-02-19 23:38:00,4,Illinois Center,41.79487331842972,-87.60614763680151,41609,False,6770032654020,Harlem & Wabansia,Wabansia & Neva,1417.36669921875,0.6,on_time,20.849,0.74,False,0,False,False
1338,2026-02-19 23:40:00,4,Illinois Center,41.8021605355399,-87.60630798339844,44275,False,6770017510020,North Ave & Karlov,North Ave & Pulaski,1420.0,0.0,on_time,15.538,1.47,False,0,False,False
1348,2026-02-19 23:38:00,3,Michigan/Chicago,41.87484686715262,-87.62417602539062,60293,False,6770005941020,North Ave & Long,North Ave & Lockwood,1418.9000244140625,-0.9,on_time,11.727,0.84,False,0,False,False
1348,2026-02-19 23:39:00,3,Michigan/Chicago,41.878153183880976,-87.62420624377681,61497,False,6770048473010,North Ave & Leclaire,North Ave & Laramie,1418.2667236328125,0.7,on_time,11.464,0.42,False,0,False,False
1352,2026-02-19 23:38:00,20,Washington/State,41.88048419436893,-87.77407280174461,0,False,6770032654020,North Ave & Neva,Harlem & North Ave,1416.6500244140625,1.3,on_time,4.12,1.67,False,0,False,False
1352,2026-02-19 23:39:00,20,Washington/State,41.88048419436893,-87.77407280174461,0,False,6770047763070,Fullerton & Washtenaw,Fullerton & California,1419.449951171875,-0.4,on_time,8.052,0.31,False,0,False,False
1360,2026-02-19 23:38:00,77,Cumberland,41.93307876586914,-87.63932800292969,1382,False,6770034776070,Fullerton & California,Fullerton & Washtenaw,1417.2166748046875,0.8,on_time,4.734,0.88,False,0,False,False
1360,2026-02-19 23:39:00,77,Cumberland,41.93415451049805,-87.63935089111328,1777,False,6770044385070,Fullerton & Narragansett,Fullerton & Mobile,1417.88330078125,1.1,on_time,11.948,0.24,False,0,False,False
1360,2026-02-19 23:40:00,77,Cumberland,41.937461853027344,-87.63945007324219,2986,False,6770026356020,Grand & Nordica Terminal,Grand & Sayre,1418.7166748046875,1.3,on_time,13.442,0.45,False,0,False,False
1366,2026-02-19 23:38:00,54,Montrose,41.95995181944312,-87.74767675632384,41586,False,6770035406020,Fullerton & Lamon,Fullerton & Lavergne,1418.0333251953125,-0.0,on_time,3.98,0.13,False,0,False,False
1366,2026-02-19 23:40:00,54,Montrose,41.95995181944312,-87.74767675632384,41586,False,6770018985070,Lincoln & Belden/Orchard,Fullerton & Halsted,1416.5,3.5,on_time,8.982,1.61,False,1,True,False
1394,2026-02-19 23:39:00,80,Broadway,41.95443494392164,-87.65880885268703,41215,False,6770029201020,75th Street & State,Lafayette & 75th Street,1419.800048828125,-0.8,on_time,22.015,1.66,False,0,False,False
1394,2026-02-19 23:39:00,80,Broadway,41.954471588134766,-87.65680252878289,41761,False,6770032945070,79th Street & Damen,79th Street & Hamilton,1419.449951171875,-0.4,on_time,22.768,1.26,False,0,False,False
1394,2026-02-19 23:40:00,80,Broadway,41.95454025268555,-87.6515208024245,43196,False,6770032540020,Diversey & Neva Terminal,Diversey & Nordica,1424.2332763671875,-4.2,early,12.8,5.5,False,0,False,False
1398,2026-02-19 23:38:00,85,Harrison,41.93179716630416,-87.76626684015447,23198,False,6770024256020,Diversey & St. Louis,Milwaukee & Diversey/Kimball,1419.11669921875,-1.1,early,4.5,0.58,False,0,False,False
1398,2026-02-19 23:39:00,85,Harrison,41.931400299072266,-87.76634135144822,23344,False,6770001150020,Diversey & Francisco,Diversey & Sacramento,1420.0167236328125,-1.0,on_time,5.29,1.39,False,0,False,False
1398,2026-02-19 23:40:00,85,Harrison,41.929455705122514,-87.76618957519531,24052,False,6770000833020,Diversey & Menard,Diversey & Marmora,1417.2833251953125,2.7,on_time,0.626,0.82,False,0,False,False
1399,2026-02-19 23:39:00,65,Nordica,41.920566485478325,-87.77566997821515,48001,False,6770038613010,95th Street & Throop,95th Street & Loomis,1417.5999755859375,1.4,on_time,24.218,0.7,False,0,False,False
1399,2026-02-19 23:40:00,65,Nordica,41.92179067511307,-87.78229402240954,49859,False,6770026512010,Ashland & 57th Street,Ashland & Garfield,1419.5833740234375,0.4,on_time,17.225,0.95,False,0,False,False
1404,2026-02-19 23:39:00,80,Harlem,41.95330166666667,-87.8088,43031,False,6770044983020,Ashland & 15th Street,Ashland & 18th Street,1420.199951171875,-1.2,early,15.886,2.08,False,0,False,False
1404,2026-02-19 23:39:00,80,Harlem,41.95330166666667,-87.8088,43031,False,6770025227070,Ashland & 18th Street,Ashland & 15th Street,1417.4166259765625,1.6,on_time,15.598,1.25,False,0,False,False
1404,2026-02-19 23:40:00,80,Harlem,41.95324,-87.80896666666666,43031,False,6770043814070,Ashland & 95th Street,Ashland & 95th Street Terminal,1413.5,6.5,late,28.556,4.82,False,0,False,False
1417,2026-02-19 23:39:00,29,95th Red Line,41.82688554128011,-87.6265214284261,30251,False,6770002441020,Ashland & 71st Street,Ashland & 70th Street,1417.050048828125,1.9,on_time,7.354,1.12,False,0,False,False
1417,2026-02-19 23:40:00,29,95th Red Line,41.82387080091111,-87.62650299072266,31349,False,6770025227070,Ashland & 18th Street,Ashland & 15th Street,1417.4166259765625,2.6,on_time,5.33,1.07,False,0,False,False
1420,2026-02-19 23:38:00,47,Midway Orange Line,41.80934143066406,-87.59154510498047,0,False,6770048807020,Ashland & Blackhawk,Ashland & North Ave,1418.9666748046875,-1.0,on_time,12.919,0.66,False,0,False,False
1420,2026-02-19 23:40:00,47,Midway Orange Line,41.80934143066406,-87.59154510498047,0,False,6770017041020,Ashland & 69th Street,Ashland & 70th Street,1422.11669921875,-2.1,early,7.639,3.59,False,1,True,False
1442,2026-02-19 23:39:00,65,Nordica,41.92366409301758,-87.7960220972697,53747,False,6770018865020,1440 S Indiana,Indiana & 15th Place,1420.5,-1.5,early,15.948,1.46,False,0,False,False
1442,2026-02-19 23:39:00,65,Nordica,41.92358095683749,-87.80071331205822,55031,False,6770000113010,Roosevelt & Michigan,Roosevelt Orange/Red/Green Line Station,1416.11669921875,2.9,on_time,15.694,2.05,False,0,False,False
1444,2026-02-19 23:39:00,49,79th,41.91905245573624,-87.68751990276834,21772,False,6770009019070,Roosevelt & Spaulding,Roosevelt & Homan,1419.2833251953125,-0.3,on_time,6.148,1.14,False,0,False,False
1444,2026-02-19 23:40:00,49,79th,41.91571388244629,-87.687428855896,22993,False,6770003363020,Central & Fillmore,Central & Harrison Terminal,1415.5,4.5,on_time,8.002,2.8,False,0,False,False
1452,2026-02-19 23:40:00,67,67th/South Shore,41.773738333333334,-87.58618333333334,46573,False,6770022295020,1100 S Columbus (Pedestrian Underpass),Jeffery & 67th Street,1419.0833740234375,0.9,on_time,0.799,4.05,False,0,False,False
1469,2026-02-19 23:35:00,55,Museum of Science & Industry,41.793563766479494,-87.67374786376953,22891,False,6770042626070,Jeffery & 81st Street,Jeffery & 83rd Street/South Chicago,1420.699951171875,-5.7,early,9.725,2.04,False,0,False,False
1469,2026-02-19 23:35:00,55,Museum of Science & Industry,41.793563766479494,-87.67374786376953,22891,False,6770004532070,103rd Street & Luella,103rd Street & Stony Island Garage Terminal,1417.5,-2.5,early,12.18,0.67,False,0,False,False
1473,2026-02-19 23:39:00,63,Stony Island,41.780370009572884,-87.60832455283717,40047,False,6770040772020,103rd Street & Stony Island Garage Terminal,103rd Street & Luella,1420.8499755859375,-1.8,early,8.71,0.52,False,0,False,False
1473,2026-02-19 23:40:00,63,Stony Island,41.78044128417969,-87.60233471844647,41699,False,6770049820070,Stony Island & 65th Street,67th Street & Cornell,1420.0333251953125,-0.0,on_time,1.629,0.54,False,0,False,False
1484,2026-02-19 23:39:00,62,Harlem,41.86743071983601,-87.62748981344289,8703,False,6770048211070,Wells & 48th Place,Wells & 50th Street,1418.0,1.0,on_time,7.079,0.73,False,0,False,False
1484,2026-02-19 23:40:00,62,Harlem,41.864051055908206,-87.62744140625,9931,False,6770006546020,Stony Island & 60th Street,Stony Island & 59th Street,1416.4166259765625,3.6,on_time,9.101,2.9,False,0,False,False
1485,2026-02-19 23:38:00,55,Midway Orange Line,41.7933235168457,-87.71554747081939,38658,False,6770041003020,Madison & Austin Terminal,Madison & Mayfield,1419.7667236328125,-1.8,early,10.696,0.02,False,0,False,False
1485,2026-02-19 23:40:00,55,Midway Orange Line,41.79322052001953,-87.72292362559925,40674,False,6770002740070,Madison & Laflin,Madison & Ashland,1419.0,1.0,on_time,10.873,0.62,False,0,False,False
1491,2026-02-19 23:38:00,9,Ravenswood Metra,41.90738001177388,-87.66754150390625,69020,False,6770008587070,Madison & Aberdeen,Madison & Morgan,1417.0333251953125,1.0,on_time,3.139,1.22,False,0,False,False
1491,2026-02-19 23:39:00,9,Ravenswood Metra,41.911050377822505,-87.66764831542969,70357,False,6770008587070,Madison & Morgan,Madison & Peoria,1417.449951171875,1.6,on_time,3.582,0.72,False,0,False,False
1492,2026-02-19 23:38:00,9,95th Red Line,41.85794052987728,-87.6661448928545,42277,False,6770041003020,Madison & Austin Terminal,Madison & Mayfield,1419.7667236328125,-1.8,early,9.061,1.0,False,0,False,False
1492,2026-02-19 23:40:00,9,95th Red Line,41.85575051143252,-87.6660938920646,43077,False,6770010268070,Madison & Springfield,Madison & Hamlin,1418.36669921875,1.6,on_time,5.291,0.14,False,0,False,False
1500,2026-02-19 23:38:00,70,Austin,41.90216064453125,-87.76403839111327,37760,False,6770021139010,Cermak & Wood,Cermak & Wolcott,1418.3499755859375,-0.3,on_time,9.348,0.22,False,0,False,False
1500,2026-02-19 23:39:00,70,Austin,41.902183532714844,-87.76523699079242,38088,False,6770038633020,Cermak & Springfield,Cermak & Hamlin,1417.9166259765625,1.1,on_time,6.764,0.31,False,0,False,False
1500,2026-02-19 23:40:00,70,Austin,41.90211639404297,-87.77228546142578,39996,False,6770045045020,Cermak & Home,Cermak & Oak Park,1417.3499755859375,2.7,on_time,5.993,1.16,False,0,False,False
1510,2026-02-19 23:39:00,36,Devon/Clark,41.8864540793679,-87.6295166015625,5036,False,6770038633020,Cermak & Spaulding,Cermak & Kedzie,1421.0,-2.0,early,7.35,2.9,False,0,False,False
1510,2026-02-19 23:40:00,36,Devon/Clark,41.88896107328111,-87.6295664690543,5953,False,6770027821010,St. Joseph Hospital,Sheridan & Diversey,1417.566650390625,2.4,on_time,4.974,0.54,False,0,False,False
1511,2026-02-19 23:38:00,9,Ravenswood Metra,41.76665011319247,-87.66378021240234,16991,False,6770008462010,Belmont & Oakley,Belmont & Western/Clybourn,1418.63330078125,-0.6,on_time,19.335,0.89,False,0,False,False
1511,2026-02-19 23:40:00,9,Ravenswood Metra,41.76846694946289,-87.66379824551669,17653,False,6770009768020,Belmont & Kimball (Blue Line),Belmont & St. Louis,1418.0333251953125,2.0,on_time,19.468,0.63,False,0,False,False
1520,2026-02-19 23:39:00,55,Ashland,41.793521881103516,-87.70369529724121,14692,False,6770037802070,Belmont & Pontiac,Belmont & Cumberland Terminal,1421.0,-2.0,early,19.357,1.96,False,0,False,False
1520,2026-02-19 23:40:00,55,Ashland,41.79359817504883,-87.69871241871904,16047,False,6770018434070,Belmont Red/Brown/Purple Line Station,Belmont & Seminary,1418.5333251953125,1.5,on_time,16.641,0.35,False,0,False,False
1524,2026-02-19 23:39:00,55,Museum of Science & Industry,41.79303216243136,-87.58389503368433,48632,False,6770028455010,Belmont & California,Belmont & Washtenaw,1419.86669921875,-0.9,on_time,18.712,1.78,False,0,False,False
1524,2026-02-19 23:40:00,55,Midway Orange Line,41.79169845581055,-87.58247375488281,363,False,6770037802070,Belmont & Oketo,Belmont & Olcott,1417.7166748046875,2.3,on_time,25.143,0.49,False,1,False,True
1528,2026-02-19 23:39:00,80,Harlem,41.9536860874721,-87.73022809709822,21397,False,6770010228010,79th Street & Kilpatrick,79th Street & Kilbourn,1418.300048828125,0.7,on_time,22.743,0.07,False,0,False,False
1528,2026-02-19 23:39:00,80,Harlem,41.9536860874721,-87.73022809709822,21397,False,6770034226020,79th Street & Campbell,79th Street & Western Terminal,1417.5,1.5,on_time,22.896,0.83,False,0,False,False
1528,2026-02-19 23:40:00,80,Harlem,41.95363998413086,-87.73316110147012,22194,False,6770010072070,79th Street & Peoria,79th Street & Halsted,1418.800048828125,1.2,on_time,23.751,0.3,False,0,False,False
1535,2026-02-19 23:39:00,62,Kinzie/State,41.83869268243963,-87.66389867609197,45172,False,6770012340010,76th Street & Ford City Movie Theatre,Ford City,1419.5,-0.5,on_time,10.86,0.63,False,0,False,False
1535,2026-02-19 23:40:00,62,Kinzie/State,41.84068566037897,-87.65996016117565,46463,False,6770021539020,79th Street & Lake Shore Drive,79th Street & South Shore,1420.9000244140625,-0.9,on_time,13.504,0.5,False,0,False,False
1536,2026-02-19 23:39:00,49,79th,41.907911028180806,-87.68721335274833,25836,False,6770005108020,79th Street & Pulaski,79th Street & Springfield,1418.5,0.5,on_time,17.825,0.63,False,0,False,False
1536,2026-02-19 23:40:00,49,79th,41.90316081047058,-87.68711853027344,27567,False,6770002395070,79th Street & Karlov,79th Street & Tripp,1417.8333740234375,2.2,on_time,17.41,0.39,False,0,False,False
1550,2026-02-19 23:38:00,36,Devon/Clark,41.96017837524414,-87.65413665771484,34568,False,6770012340010,Cicero & 76th Street,76th Street & Ford City Movie Theatre,1418.3333740234375,-0.3,on_time,23.83,0.3,False,0,False,False
1550,2026-02-19 23:40:00,36,Devon/Clark,41.9616584777832,-87.65506744384766,35163,False,6770025810010,79th Street & Campbell,79th Street & Western Terminal,1419.5,0.5,on_time,23.539,0.75,False,0,False,False
1570,2026-02-19 23:38:00,9,Ravenswood Metra,41.860530853271484,-87.66617965698242,51946,False,6770043919010,79th Street & Laflin,79th Street & Ashland,1418.5333251953125,-0.5,on_time,12.245,0.11,False,0,False,False
1570,2026-02-19 23:40:00,9,Ravenswood Metra,41.86334409713745,-87.66629619598389,52979,False,6770025229070,79th Street & Western,79th Street & Campbell,1420.61669921875,-0.6,on_time,12.679,2.16,False,0,False,False
1572,2026-02-19 23:39:00,94,74th/Damen,41.80828846202177,-87.69144035788143,55445,False,6770001504010,79th Street & Michigan,79th Red Line Station,1419.0,0.0,on_time,8.401,0.0,False,0,False,False
1572,2026-02-19 23:39:00,94,74th/Damen,41.80830764770508,-87.68934631347656,56020,False,6770010072070,79th Street & Halsted,79th Street & Union,1419.5333251953125,-0.5,on_time,7.545,0.01,False,0,False,False
1572,2026-02-19 23:40:00,94,74th/Damen,41.80841554914202,-87.68441772460938,57365,False,6770043059070,79th Street & Francisco,79th Street & California,1418.816650390625,1.2,on_time,6.55,0.39,False,0,False,False
1573,2026-02-19 23:39:00,94,74th/Damen,41.94576644897461,-87.69800567626953,1626,False,6770045954070,Irving Park & Harlem,Forest Preserve Avenue & Harlem/Irving Park,1419.0,0.0,on_time,9.205,0.07,False,0,False,False
1573,2026-02-19 23:39:00,94,74th/Damen,41.94350051879883,-87.69795227050781,2454,False,6770043790070,Irving Park & Fremont,Irving Park & Sheridan,1418.2332763671875,0.8,on_time,3.81,0.5,False,0,False,False
1573,2026-02-19 23:40:00,94,74th/Damen,41.939571380615234,-87.69793701171875,3883,False,6770020732010,Irving Park Blue Line Station,Irving Park & Pulaski,1421.0,-1.0,on_time,2.918,2.3,False,0,False,False
1577,2026-02-19 23:39:00,63,Midway Orange Line,41.78051347552606,-87.5960303252598,3651,False,6770047635010,Irving Park & Clark,Irving Park & Seminary,1420.86669921875,-1.9,early,19.983,1.36,False,0,False,False
1577,2026-02-19 23:40:00,63,Midway Orange Line,41.78044891357422,-87.6029301693565,5531,False,6770043790070,Irving Park & Kenmore,Irving Park & Clark,1420.5167236328125,-0.5,on_time,19.959,1.03,False,0,False,False
1580,2026-02-19 23:38:00,75,Lakefront,41.759071350097656,-87.5604255312965,45549,False,6770029010020,Irving Park & Keeler,Irving Park Blue Line Station,1420.1666259765625,-2.2,early,25.791,0.58,False,0,False,False
1580,2026-02-19 23:39:00,75,Lakefront,41.75957749106667,-87.559176011519,45945,False,6770030857020,Irving Park & Narragansett,Irving Park & Natchez,1419.0999755859375,-0.1,on_time,28.708,0.37,False,0,False,False
1580,2026-02-19 23:40:00,75,Lakefront,41.761390979473404,-87.55531897911659,47225,False,6770008466020,Lawrence & Lamon,Lawrence & Cicero,1418.9000244140625,1.1,on_time,27.966,0.43,False,0,False,False
1582,2026-02-19 23:39:00,63,Midway Orange Line,41.782127380371094,-87.74231719970703,45345,False,6770030497070,Lawrence & Kostner,Lawrence & Elston,1417.9166259765625,1.1,on_time,20.691,0.54,False,0,False,False
1582,2026-02-19 23:40:00,63,Midway Orange Line,41.784274618966236,-87.74098161969866,46287,False,6770034207020,Lawrence & Ashland,Lawrence & Hermitage,1419.9166259765625,0.1,on_time,21.303,0.78,False,0,False,False
1621,2026-02-19 23:38:00,80,Harlem,41.95446259634836,-87.65696280343192,1501,False,6770034503020,Lawrence & Lawndale,Lawrence & Hamlin,1417.75,0.2,on_time,5.676,0.4,False,0,False,False
1621,2026-02-19 23:39:00,80,Harlem,41.95439910888672,-87.6615784103806,2759,False,6770031537010,Devon & Kedzie Terminal,McCormick & Devon,1416.2667236328125,2.7,on_time,6.306,2.5,False,0,False,False
1621,2026-02-19 23:40:00,80,Harlem,41.95436096191406,-87.66413951369951,3452,False,6770019360020,Lawndale & 25th Street,Central Park & 25th Street,1417.86669921875,2.1,on_time,12.716,1.23,False,0,False,False
1806,2026-02-19 23:39:00,147,Howard Station,41.88653448353643,-87.62445084945016,6500,False,6770002089020,Kimball & Altgeld,Kimball & Wrightwood,1420.5999755859375,-1.6,early,8.612,2.11,False,0,False,False
1806,2026-02-19 23:39:00,147,Howard Station,41.88653448353643,-87.62445084945016,6500,False,6770004883070,Kimball & Grace,Kimball & Byron,1419.0167236328125,-0.0,on_time,10.312,0.5,False,0,False,False
1807,2026-02-19 23:38:00,155,Morse Red Line,41.9977543422154,-87.68836713518415,5908,False,6770023716010,31st Street & Pulaski,31st Street & Springfield,1417.63330078125,0.4,on_time,18.108,0.75,False,0,False,False
1807,2026-02-19 23:39:00,155,Morse Red Line,41.99778020949591,-87.68742443266369,6164,False,6770020459010,Kimball & Dickens,Kimball & Armitage,1422.0167236328125,-3.0,early,9.189,2.3,False,0,False,False
1855,2026-02-19 23:39:00,146,Berwyn Red Line,41.8868293762207,-87.62445831298828,14846,False,6770033434020,Homan & Ohio,Homan & Franklin,1419.0833740234375,-0.1,on_time,7.202,0.53,False,0,False,False
1855,2026-02-19 23:40:00,146,Berwyn Red Line,41.88793182373047,-87.62448120117188,15250,False,6770019609020,Milwaukee & Foster,Milwaukee & Gale,1419.38330078125,0.6,on_time,14.72,0.34,False,0,False,False
1865,2026-02-19 23:39:00,49B,Western Brown Line,42.01814270019531,-87.68987274169922,1,False,6770026236070,Central & Wellington,Central & Barry,1420.9166259765625,-1.9,early,11.048,2.72,False,0,False,False
1865,2026-02-19 23:40:00,49B,Western Brown Line,42.01589144831119,-87.69024707960045,901,False,6770026236070,Central & Diversey,Central & George,1419.7833251953125,0.2,on_time,11.152,0.24,False,0,False,False
1873,2026-02-19 23:39:00,50,Ashland/Clark,41.96131246230181,-87.67891737994026,49616,False,6770038097020,Central & Catalpa,Central & Bryn Mawr,1418.5333251953125,0.5,on_time,7.766,0.44,False,0,False,False
1873,2026-02-19 23:40:00,50,Ashland/Clark,41.96637898399716,-87.67912292480469,51452,False,6770008908070,Clark & Harrison,Dearborn & Polk,1416.300048828125,3.7,on_time,11.229,4.0,False,0,False,False
1929,2026-02-19 23:38:00,66,Pulaski,41.89506149291992,-87.73770904541016,10061,False,6770012559070,Clark & Lunt,Clark & Morse,1416.933349609375,1.1,on_time,13.612,1.31,False,0,False,False
1929,2026-02-19 23:39:00,66,Pulaski,41.89513397216797,-87.73418426513672,11019,False,6770000394020,Clark & Belden,Clark & Fullerton,1418.11669921875,0.9,on_time,8.473,0.03,False,0,False,False
4025,2026-02-19 23:39:00,151,Devon/Clark,41.92001879656756,-87.63548872205946,21079,False,6770004541070,Clark & Belle Plaine,Clark & Cullom,1418.949951171875,0.1,on_time,5.052,0.03,False,0,False,False
4025,2026-02-19 23:39:00,151,Devon/Clark,41.92115711521458,-87.63568981273754,21500,False,6770021116070,Clark & Granville,Clark & Rosemont,1420.2833251953125,-1.3,early,8.829,1.13,False,0,False,False
4029,2026-02-19 23:39:00,22,Howard,41.99585700035095,-87.6700668334961,49010,False,6770015253010,Clark & Elmdale/Peterson,Clark & Thorndale,1418.9666748046875,0.0,on_time,0.838,0.43,False,0,False,False
4029,2026-02-19 23:40:00,22,Howard,41.998449908362495,-87.67064740922716,49982,False,6770030446010,Clark & Wellington,Clark & Barry/Halsted,1420.0999755859375,-0.1,on_time,6.873,1.71,False,0,False,False
4053,2026-02-19 23:39:00,6,79th/South Shore,41.87854655196027,-87.62775421142578,7554,False,6770040286020,Clark & Kinzie,Clark & Randolph,1418.5333251953125,0.5,on_time,0.693,0.2,False,0,False,False
4064,2026-02-19 23:38:00,J14,103rd/Stony Island,41.74767039372371,-87.57593829815204,59085,False,6770025032010,Stony Island & 86th Street,Stony Island & 85th Street,1417.5,0.5,on_time,1.098,0.76,False,0,False,False
4064,2026-02-19 23:40:00,J14,103rd/Stony Island,41.744819987903945,-87.57585088556463,60107,False,6770014789010,Stony Island & 95th Street,103rd Street & Stony Island Garage Terminal,1419.5,0.5,on_time,4.058,1.48,False,0,False,False
4083,2026-02-19 23:38:00,6,79th/South Shore,41.77744512557983,-87.58633937835694,50482,False,6770027815020,Stony Island & 65th Street,Stony Island & 64th Street,1419.88330078125,-1.9,early,0.147,0.67,False,0,False,False
4083,2026-02-19 23:40:00,6,79th/South Shore,41.7736246992902,-87.58628845214844,51875,False,6770042821070,Grand & St. Clair,Grand & Rush,1422.0167236328125,-2.0,early,13.537,2.67,False,0,False,False
4130,2026-02-19 23:38:00,22,Harrison,41.99046377702193,-87.67013018059008,11768,False,6770014514020,State & 9th Street,State & Balbo,1423.4000244140625,-5.4,early,13.532,4.51,False,0,False,False
4130,2026-02-19 23:39:00,22,Harrison,41.98719390451092,-87.66971379110258,12972,False,6770003690070,Dearborn & Hubbard,Illinois & State,1416.699951171875,2.3,on_time,11.264,1.49,False,0,False,False
4143,2026-02-19 23:38:00,22,Howard,41.88291875866876,-87.6294174194336,4889,False,6770013699020,State & 73rd Street,State & 72nd Street,1420.1666259765625,-2.2,early,13.277,0.85,False,0,False,False
4143,2026-02-19 23:40:00,22,Howard,41.88555696275499,-87.6294937133789,5850,False,6770017317070,State & 37th Street,State & 38th Street,1421.2833251953125,-1.3,early,6.661,1.93,False,0,False,False
4154,2026-02-19 23:39:00,151,Union Station,41.9538969560103,-87.6545243696733,20896,False,6770027639020,Lafayette & 94th Street,95th Red Line Station,1418.0,1.0,on_time,25.823,0.05,False,0,False,False
4154,2026-02-19 23:39:00,151,Union Station,41.95289158475572,-87.65449004242386,21266,False,6770048337020,95th Street & Michigan,95th Red Line Station,1414.0,5.0,on_time,25.717,4.06,False,0,False,False
4155,2026-02-19 23:39:00,147,Howard Station,41.89503161112467,-87.62418111165364,9618,False,6770043022020,Michigan & 118th Street,Michigan & 119th Street,1418.88330078125,0.1,on_time,24.115,0.29,False,0,False,False
4155,2026-02-19 23:39:00,147,Howard Station,41.89503161112467,-87.62418111165364,9618,False,6770046093070,Michigan & 107th Street,10600 S Michigan,1419.4666748046875,-0.5,on_time,21.501,0.19,False,0,False,False
4157,2026-02-19 23:38:00,146,Berwyn Red Line,41.88682174682617,-87.62593841552734,14444,False,6770001251010,Sox-35th Red Line Station,35th Street & Federal,1419.0333251953125,-1.0,on_time,6.224,0.49,False,0,False,False
4157,2026-02-19 23:39:00,146,Berwyn Red Line,41.88682174682617,-87.62452697753906,14827,False,6770008712020,35th Street & Normal,35th Street & Wallace,1417.6666259765625,1.3,on_time,6.369,0.42,False,0,False,False
4157,2026-02-19 23:40:00,146,Berwyn Red Line,41.88793182373047,-87.62448120117188,15250,False,6770036828070,California & 36th Place,36th Place & Francisco,1416.38330078125,3.6,on_time,9.024,3.06,False,0,False,False
4304,2026-02-19 23:38:00,6,Wacker/Columbus,41.787400891703946,-87.58661651611328,22056,False,6770017962070,Broadway & Montrose,Broadway & Cullom,1418.5333251953125,-0.5,on_time,20.07,0.3,False,0,False,False
4304,2026-02-19 23:40:00,6,Wacker/Columbus,41.79161272915927,-87.5859444358132,23733,False,6770009448020,Division & Clark (Red Line),Division & State,1420.3333740234375,-0.3,on_time,12.978,1.71,False,0,False,False
4314,2026-02-19 23:38:00,J14,103rd/Stony Island,41.70862183204064,-87.58231060321515,83582,False,6770015691010,State & Van Buren,Van Buren & Clark,1419.1666259765625,-1.2,early,19.147,0.35,False,0,False,False
4314,2026-02-19 23:39:00,J14,103rd/Stony Island,41.70849537849426,-87.58208513259888,83668,False,6770023261020,Dearborn & Wacker/Lake,Dearborn & Marina City,1419.5833740234375,-0.6,on_time,20.354,0.64,False,0,False,False
4324,2026-02-19 23:38:00,J14,103rd/Stony Island,41.81652069091797,-87.59493255615234,31985,False,6770040955020,Clark & Webster,Clark & Belden,1419.6666259765625,-1.7,early,12.464,0.83,False,0,False,False
4324,2026-02-19 23:40:00,J14,103rd/Stony Island,41.803428649902344,-87.58186340332031,37982,False,6770003316010,Clark & Armitage,Clark & Wisconsin,1416.2667236328125,3.7,on_time,13.349,1.91,False,1,False,True
4325,2026-02-19 23:38:00,22,Howard,41.957229098758184,-87.66401610503326,34729,False,6770012412010,87th Street & Wallace,87th Street & Union,1418.75,-0.8,on_time,24.651,0.38,False,0,False,False
4325,2026-02-19 23:40:00,22,Howard,41.961557149887085,-87.66593360900879,36397,False,6770023658020,87th Street & Blackstone,87th Street & Stony Island (Nearside),1420.9000244140625,-0.9,on_time,25.853,1.21,False,0,False,False
4334,2026-02-19 23:39:00,151,Union Station,41.879398345947266,-87.63359069824219,55274,False,6770002635070,91st Street & Houston,87th Street & Commercial,1419.13330078125,-0.1,on_time,17.18,0.77,False,0,False,False
4334,2026-02-19 23:39:00,151,Union Station,41.87937545776367,-87.63568878173828,55845,False,6770003391020,200 W 87th Street,87th Street & Holland,1417.88330078125,1.1,on_time,15.939,1.19,False,0,False,False
4338,2026-02-19 23:39:00,146,Berwyn Red Line,41.966612074110245,-87.64891476101346,45894,False,6770026513070,87th Street & Blackstone,87th Street & Stony Island (Nearside),1416.949951171875,2.1,on_time,26.078,1.15,False,0,False,False
4338,2026-02-19 23:39:00,146,Berwyn Red Line,41.96743240356445,-87.6491455078125,46199,False,6770031711020,Harlem & Montrose,Harlem & Sunnyside,1421.2833251953125,-2.3,early,13.073,1.78,False,0,False,False
4338,2026-02-19 23:40:00,146,Berwyn Red Line,41.97174334526062,-87.65046787261963,47813,False,6770024927020,California Pink Line Station,California & 19th Street,1417.550048828125,2.4,on_time,13.455,1.55,False,0,False,False
4342,2026-02-19 23:39:00,151,Devon/Clark,41.9981689453125,-87.6631562516496,54902,False,6770029477020,71st Street & California,71st Street & Washtenaw,1419.2667236328125,-0.3,on_time,26.078,0.0,False,0,False,False
4342,2026-02-19 23:39:00,151,Devon/Clark,41.99814987182617,-87.66479691215183,55348,False,6770037474020,California & Addison,California & Roscoe,1418.199951171875,0.8,on_time,6.727,1.58,False,0,False,False
4357,2026-02-19 23:38:00,22,Harrison,41.88454154229933,-87.63094329833984,52851,False,6770021321020,California & Jackson,California & Harrison,1420.88330078125,-2.9,early,5.537,0.74,False,0,False,False
4357,2026-02-19 23:39:00,22,Harrison,41.88349742274131,-87.63091278076172,53231,False,6770026783070,47th Street & Washtenaw,47th Street & Rockwell,1420.7166748046875,-1.7,early,9.664,1.26,False,0,False,False
4372,2026-02-19 23:39:00,151,Devon/Clark,41.978155887488164,-87.65503496112245,45612,False,6770039361070,California & 66th Street,California & Marquette Rd,1417.7332763671875,1.3,on_time,23.149,0.38,False,0,False,False
4372,2026-02-19 23:39:00,151,Devon/Clark,41.98046355551862,-87.65509796142578,46454,False,6770035161070,93rd Street & Clyde,93rd Street & Jeffery,1420.183349609375,-1.2,early,29.036,1.0,False,0,False,False
4394,2026-02-19 23:39:00,151,Devon/Clark,41.93600966713645,-87.63941782171077,27363,False,6770044530070,95th Street & Princeton,95th Street & Eggleston,1416.7332763671875,2.3,on_time,23.838,2.35,False,0,False,False
4394,2026-02-19 23:39:00,151,Devon/Clark,41.936311201615766,-87.6394306529652,27474,False,6770005376020,93rd Street & Woodlawn,Woodlawn & 94th Street,1418.88330078125,0.1,on_time,23.881,0.54,False,0,False,False
609,2026-02-19 23:38:00,66,Austin,41.89565211328967,-87.65447708656048,16398,False,6770006358020,93rd Street & Manistee,93rd Street & Marquette Avenue,1417.75,0.2,on_time,20.445,1.44,False,0,False,False
609,2026-02-19 23:39:00,66,Austin,41.8962516784668,-87.65546993333466,16746,False,6770047128020,51st Street & Damen,51st Street & Hoyne,1416.63330078125,2.4,on_time,10.706,2.59,False,0,False,False
609,2026-02-19 23:40:00,66,Austin,41.89619582446653,-87.65962629175898,17873,False,6770018667020,Lake Park & 47th Street Terminal,47th Street & Lake Park,1416.5999755859375,3.4,on_time,11.087,2.0,False,0,False,False
7901,2026-02-19 23:38:00,34,131st & Ellis,41.67990711757115,-87.62056732177734,16871,False,6770022312070,79th & Western Terminal,Western & 77th Street,1418.7667236328125,-0.8,on_time,9.726,0.58,False,0,False,False
7901,2026-02-19 23:40:00,34,131st & Ellis,41.67313279776737,-87.62034712166621,19333,False,6770009120070,Western & Palmer,Western & Armitage,1420.4000244140625,-0.4,on_time,27.757,0.9,False,0,False,False
7902,2026-02-19 23:38:00,75,79th/Western,41.758160495758055,-87.62634830474853,19500,False,6770049737010,Western & Le Moyne,Western & Hirsch,1418.816650390625,-0.8,on_time,17.251,0.8,False,0,False,False
7902,2026-02-19 23:39:00,75,79th/Western,41.75693487613759,-87.62634553300573,19957,False,6770041264010,Western & Taylor,Western & Roosevelt,1416.699951171875,2.3,on_time,13.133,1.44,False,0,False,False
7902,2026-02-19 23:40:00,75,79th/Western,41.752718705397385,-87.62592033973107,21494,False,6770010552070,Western & Marquette Rd,Western & 69th Street,1421.949951171875,-1.9,early,5.087,2.83,False,0,False,False
7917,2026-02-19 23:38:00,3,95th Red Line,41.76929975237165,-87.61542750767299,50347,False,6770010552070,Western & 69th Street,Western & 71st Street,1422.7833251953125,-4.8,early,5.658,2.98,False,0,False,False
7917,2026-02-19 23:39:00,3,95th Red Line,41.76592280946929,-87.61529541015625,51581,False,6770004882020,Western & 77th Street,79th & Western Terminal,1416.5,2.5,on_time,5.836,1.63,False,0,False,False
7954,2026-02-19 23:38:00,3,95th Red Line,41.80596180966026,-87.61656081885623,36930,False,6770007955020,Western & 61st Street,Western & 59th Street,1419.5833740234375,-1.6,early,5.963,0.48,False,0,False,False
7954,2026-02-19 23:40:00,3,95th Red Line,41.801593530373495,-87.61619492827869,38531,False,6770020265020,Western & 28th Street,Western & 26th Street,1418.13330078125,1.9,on_time,7.507,0.09,False,0,False,False
7967,2026-02-19 23:38:00,3,Michigan/Chicago,41.834482036653114,-87.61695861816406,44274,False,6770008059070,Western & 35th Street,Western & Archer,1419.63330078125,-1.6,early,5.724,0.19,False,0,False,False
7967,2026-02-19 23:40:00,3,Michigan/Chicago,41.83933602004755,-87.61705780029297,46047,False,6770021292070,Western & Barry,Western & Belmont/Clybourn,1418.63330078125,1.4,on_time,12.602,0.39,False,0,False,False
7970,2026-02-19 23:38:00,8,Waveland/Broadway,41.93845210355871,-87.64923095703125,73951,False,6770020739070,Western & Lawrence,Western & Winnemac,1416.2166748046875,1.8,on_time,5.048,3.06,False,0,False,False
7970,2026-02-19 23:39:00,8,Waveland/Broadway,41.93986436432483,-87.6492016362209,74472,False,6770021408010,Western & Morse,Western & Pratt,1419.183349609375,-0.2,on_time,8.013,0.8,False,0,False,False
7973,2026-02-19 23:38:00,79,Lakefront,41.7515626937624,-87.57825869605655,50005,False,6770026291020,Western & Birchwood Terminal,Western & Jarvis,1420.38330078125,-2.4,early,30.831,0.5,False,0,False,False
7973,2026-02-19 23:39:00,79,Lakefront,41.75159512068096,-87.57629143564324,50539,False,6770005024020,Damen & Grand,Damen & Ohio,1417.699951171875,1.3,on_time,17.716,1.77,False,0,False,False
7973,2026-02-19 23:40:00,79,Lakefront,41.751629965645925,-87.57349613734654,51303,False,6770001439070,Damen & Montrose,Damen & Sunnyside,1421.11669921875,-1.1,early,25.094,1.5,False,0,False,False
7975,2026-02-19 23:39:00,79,Lakefront,41.74947474553035,-87.72016906738281,10835,False,6770007584020,Western & 119th Street Terminal,119th Street & Western,1422.38330078125,-3.4,early,8.696,3.02,False,0,False,False
7975,2026-02-19 23:39:00,79,Lakefront,41.74952151324298,-87.71695544268634,11710,False,6770026597020,Michigan & 101st Street,Michigan & 102nd Street,1419.433349609375,-0.4,on_time,9.214,0.04,False,0,False,False
7975,2026-02-19 23:40:00,79,Lakefront,41.749538089918055,-87.71476447063944,12313,False,6770044397020,119th Street & Bell,Western & 119th Street Terminal,1419.0,1.0,on_time,8.511,0.19,False,0,False,False
7976,2026-02-19 23:38:00,8A,127th,41.66251693946728,-87.63960177656533,37308,False,6770012195020,Kedzie & 36th Street,3426 S Kedzie,1419.75,-1.8,early,19.404,0.04,False,0,False,False
7976,2026-02-19 23:40:00,8A,127th,41.662606133355034,-87.63925043741862,37408,False,6770012974020,Kedzie & 55th Street,Kedzie & 56th Street,1419.699951171875,0.3,on_time,15.325,0.59,False,0,False,False
7978,2026-02-19 23:38:00,8A,79th Red Line,41.7292845589774,-87.6433585030692,25073,False,6770008396020,76th Street & Daley College,Pulaski & 75th Place,1417.449951171875,0.6,on_time,7.183,0.88,False,0,False,False
7978,2026-02-19 23:40:00,8A,79th Red Line,41.73441488092596,-87.64350128173828,26944,False,6770042213020,Pulaski & 41st Street,3741 S Pulaski,1418.050048828125,1.9,on_time,12.088,0.05,False,0,False,False
7979,2026-02-19 23:38:00,81,Jefferson Park Blue Line,41.968318939208984,-87.72247974292652,21026,False,6770005934010,Pulaski & Carroll,Pulaski & Ferdinand,1419.1666259765625,-1.2,early,8.707,0.03,False,0,False,False
7979,2026-02-19 23:39:00,81,Jefferson Park Blue Line,41.96831317280614,-87.72335620259129,21263,False,6770005934010,Pulaski & Erie,Pulaski & Chicago,1420.7833251953125,-1.8,early,8.126,1.97,False,0,False,False
7979,2026-02-19 23:40:00,81,Jefferson Park Blue Line,41.9682502746582,-87.72732901065908,22336,False,6770048484070,76th Street & Daley College,Ford City,1418.0,2.0,on_time,23.645,1.25,False,0,False,False
7981,2026-02-19 23:38:00,81,Wilson/Marine,41.96885190691267,-87.67096601213727,25210,False,6770037762070,Pulaski Orange Line Station,5200 S Pulaski,1417.1500244140625,0.8,on_time,19.399,2.4,False,0,False,False
7981,2026-02-19 23:39:00,81,Wilson/Marine,41.96887662934094,-87.6697089962843,25550,False,6770005934010,Pulaski & Carroll,Pulaski & Ferdinand,1419.1666259765625,-0.2,on_time,9.919,0.15,False,0,False,False
7981,2026-02-19 23:40:00,81,Wilson/Marine,41.968900178608145,-87.66812736109684,25981,False,6770008354010,5200 S Pulaski,Pulaski & 53rd Street,1418.550048828125,1.4,on_time,19.67,0.86,False,0,False,False
7986,2026-02-19 23:38:00,79,Lakefront,41.75200775922355,-87.54544442386951,38371,False,6770012077020,Pulaski & 63rd Street,Pulaski & 64th Street,1416.4000244140625,1.6,on_time,14.966,3.11,False,0,False,False
7986,2026-02-19 23:39:00,79,Lakefront,41.75200775922355,-87.54544442386951,38371,False,6770045753020,Irving Park Blue Line Station,Pulaski & Avondale,1415.3499755859375,3.7,on_time,26.769,3.75,False,0,False,False
7986,2026-02-19 23:40:00,79,Ashland,41.75192333333333,-87.54472833333334,51,False,6770019265020,5200 S Pulaski,Pulaski & 53rd Street,1419.566650390625,0.4,on_time,15.63,0.11,False,1,False,True
7997,2026-02-19 23:39:00,77,Cumberland,41.93950579459207,-87.68555905526145,16466,False,6770032942020,Pulaski & 98th Street,Pulaski & 99th Street,1421.316650390625,-2.3,early,25.328,2.0,False,0,False,False
7997,2026-02-19 23:39:00,77,Cumberland,41.93950579459207,-87.68555905526145,16466,False,6770019265020,Pulaski Orange Line Station,5200 S Pulaski,1418.9666748046875,0.0,on_time,15.954,1.0,False,0,False,False
7997,2026-02-19 23:40:00,77,Cumberland,41.939548224733585,-87.6880958958676,17156,False,6770023884070,Pulaski & 87th Street,Pulaski & Main (8800 South),1420.61669921875,-0.6,on_time,23.173,1.16,False,0,False,False
8000,2026-02-19 23:38:00,71,69th Red Line,41.69276428222656,-87.55967712402344,0,False,6770014854020,Cicero & Polk,Cicero & Lexington (Blue Line),1418.61669921875,-0.6,on_time,25.077,0.58,False,0,False,False
8000,2026-02-19 23:39:00,71,69th Red Line,41.69276428222656,-87.55967712402344,0,False,6770042136010,Cicero & Wellington,Cicero & Barry,1419.300048828125,-0.3,on_time,31.261,0.18,False,0,False,False
8000,2026-02-19 23:40:00,71,69th Red Line,41.695037841796875,-87.55950927734375,874,False,6770004419020,Cicero & 23rd Street,Cicero & 24th Place Terminal,1421.0,-1.0,on_time,22.777,2.62,False,0,False,False
8001,2026-02-19 23:38:00,6,79th/South Shore,41.75201416015625,-87.54534606933593,69143,False,6770004419020,Cicero & 21st Place (Pink Line),Cicero & Cermak,1419.683349609375,-1.7,early,19.817,0.21,False,0,False,False
8001,2026-02-19 23:39:00,6,79th/South Shore,41.75201416015625,-87.54534606933593,69143,False,6770049355020,Cicero & 48th Street,Cicero & 47th Street,1418.4000244140625,0.6,on_time,17.51,0.84,False,0,False,False
8002,2026-02-19 23:39:00,15,47th Red Line,41.78712969048079,-87.58660995128542,38640,False,6770049355020,Cicero & 43rd Street,Cicero & Pershing,1422.25,-3.2,early,13.57,2.55,False,0,False,False
8002,2026-02-19 23:39:00,15,47th Red Line,41.79097607261256,-87.58670673035739,39994,False,6770013245020,Garfield & Damen,Garfield & Wolcott,1415.5167236328125,3.5,on_time,7.047,0.11,False,0,False,False
8003,2026-02-19 23:39:00,95,92nd/Buffalo,41.72195219993591,-87.60720920562744,28610,False,6770029602010,55th Street & Kilpatrick,Midway Orange Line Station,1422.0,-3.0,early,13.063,1.23,False,0,False,False
8003,2026-02-19 23:39:00,95,92nd/Buffalo,41.721961099593365,-87.60648846235432,28807,False,6770031008020,Garfield & Lowe,Garfield & Union,1417.550048828125,1.4,on_time,8.613,1.96,False,0,False,False
8003,2026-02-19 23:40:00,95,92nd/Buffalo,41.722096493369655,-87.60440183940686,29403,False,6770025852070,55th Street & Central Park,55th Street & Lawndale,1421.4832763671875,-1.5,early,12.191,3.35,False,0,False,False
8004,2026-02-19 23:39:00,29,95th Red Line,41.87008361816406,-87.62756576538087,14487,False,6770014646020,55th Street & Spaulding,55th Street & Kedzie,1419.933349609375,-0.9,on_time,10.581,0.8,False,0,False,False
8004,2026-02-19 23:39:00,29,95th Red Line,41.868060934132544,-87.62751007080078,15222,False,6770002428020,Jackson & Kenton,Jackson & Kilbourn,1420.4832763671875,-1.5,early,9.17,1.04,False,0,False,False
8016,2026-02-19 23:39:00,67,Ford City,41.76880645751953,-87.64593721047426,22545,False,6770037759070,Solidarity Dr & Planetarium,Solidarity Dr & Lynn White Drive,1421.0167236328125,-2.0,early,11.269,1.63,False,0,False,False
8016,2026-02-19 23:39:00,67,Ford City,41.76880645751953,-87.64593721047426,22545,False,6770042701020,State & E. Wacker,Michigan & South Water,1417.800048828125,1.2,on_time,13.28,1.14,False,0,False,False
8016,2026-02-19 23:40:00,67,Ford City,41.76873235233494,-87.6510856503346,23944,False,6770015384010,4646 N Marine Drive,Marine Drive & Leland,1418.5999755859375,1.4,on_time,22.086,0.88,False,0,False,False
8032,2026-02-19 23:39:00,49,Berwyn,41.78332010904948,-87.68367513020833,11960,False,6770030211010,Jefferson & Jackson,Jefferson & Washington,1421.9666748046875,-3.0,early,11.602,1.05,False,0,False,False
8032,2026-02-19 23:40:00,49,Berwyn,41.7906569403571,-87.68388366699219,14629,False,6770007580010,Madison & Dearborn/State,Madison & LaSalle,1419.7833251953125,0.2,on_time,11.01,0.62,False,0,False,False
8037,2026-02-19 23:38:00,63,Stony Island,41.78654479980469,-87.73880767822266,0,False,6770022339010,Blue Island & Wood,Blue Island & Wolcott,1419.0333251953125,-1.0,on_time,8.874,0.28,False,0,False,False
8037,2026-02-19 23:40:00,63,Stony Island,41.786489386307565,-87.7392199332254,123,False,6770025339070,Washington & Canal,Washington & Franklin,1420.25,-0.2,on_time,13.759,0.35,False,0,False,False
8043,2026-02-19 23:38:00,9,95th Red Line,41.83413911902386,-87.6657308495563,51785,False,6770021055010,4630 W 26th Street,Cicero & 24th Place Terminal,1419.0,-1.0,on_time,6.683,0.59,False,0,False,False
8043,2026-02-19 23:39:00,9,95th Red Line,41.830411177415115,-87.66563532902644,53147,False,6770037417010,Archer & Meade,Archer & Austin,1418.9666748046875,0.0,on_time,9.713,0.12,False,0,False,False
8048,2026-02-19 23:39:00,94,Addison/Rockwell,41.92220240625842,-87.69734191894531,76614,False,6770028183020,Archer & Grove,Archer & Wallace,1422.433349609375,-3.4,early,9.328,3.31,False,0,False,False
8048,2026-02-19 23:39:00,94,Addison/Rockwell,41.92220240625842,-87.69734191894531,76614,False,6770047505020,Archer & 49th Street/Avers,Archer & Pulaski,1421.9000244140625,-2.9,early,13.476,2.54,False,0,False,False
8048,2026-02-19 23:40:00,94,Addison/Rockwell,41.92404155731201,-87.69739532470703,77284,False,6770033886070,Dearborn & Randolph,Dearborn & Wacker/Lake,1418.8333740234375,1.2,on_time,7.027,0.34,False,0,False,False
8054,2026-02-19 23:38:00,9,95th Red Line,41.72122781926935,-87.66275024414062,93025,False,6770037417010,Archer & Mayfield,Archer & Menard,1420.0999755859375,-2.1,early,11.918,0.65,False,0,False,False
8054,2026-02-19 23:39:00,9,95th Red Line,41.72114212036133,-87.66239929199219,93150,False,6770027063010,Archer & Knox,Archer & Kilpatrick,1418.88330078125,0.1,on_time,10.822,0.25,False,0,False,False
8064,2026-02-19 23:39:00,94,Addison/Rockwell,41.8551152137018,-87.69551430979082,49253,False,6770009351020,Dearborn & Marina City,Clark & Kinzie,1419.5,-0.5,on_time,6.508,0.6,False,0,False,False
8064,2026-02-19 23:39:00,94,Addison/Rockwell,41.857000302045776,-87.69562530517578,49939,False,6770012590020,63rd Street & Kimbark,63rd Street & Woodlawn,1417.9832763671875,1.0,on_time,11.817,1.13,False,0,False,False
8064,2026-02-19 23:40:00,94,Addison/Rockwell,41.86099647073185,-87.69574737548828,51403,False,6770039714010,63rd Street & Wolcott,63rd Street & Wood,1419.9000244140625,0.1,on_time,9.354,0.78,False,0,False,False
8066,2026-02-19 23:38:00,9,95th Red Line,41.947853088378906,-87.6689453125,9408,False,6770022437010,Cicero & 61st Street,Midway Orange Line Station,1418.5,-0.5,on_time,18.844,2.62,False,0,False,False
8066,2026-02-19 23:39:00,9,95th Red Line,41.946469116210935,-87.6689208984375,9914,False,6770013265070,Midway Orange Line Station,Cicero & 61st Street,1422.0833740234375,-3.1,early,19.253,2.0,False,0,False,False
8082,2026-02-19 23:39:00,62,Kinzie/State,41.79403900681881,-87.77288015265214,7559,False,6770035880020,63rd Street & Karlov,63rd Street & Keeler,1418.7667236328125,0.2,on_time,4.099,0.35,False,0,False,False
8082,2026-02-19 23:40:00,62,Kinzie/State,41.794542694091795,-87.76957397460937,8479,False,6770021927020,Grand & Austin,Grand & Meade,1424.5167236328125,-4.5,early,14.086,5.07,False,0,False,False
8091,2026-02-19 23:39:00,94,74th/Damen,41.876744901216945,-87.69617462158203,29723,False,6770021927020,Grand & Oak Park,Grand & New England,1428.63330078125,-9.6,early,9.877,9.34,False,0,False,False
8091,2026-02-19 23:39:00,94,74th/Damen,41.876744901216945,-87.69617462158203,29723,False,6770043168010,Michigan & South Water,Michigan & Hubbard (Tribune Bldg.),1421.1500244140625,-2.2,early,6.162,0.32,False,0,False,False
8091,2026-02-19 23:40:00,94,74th/Damen,41.87104909173374,-87.69609464448074,31817,False,6770043168010,Michigan & Huron,Michigan & Chestnut,1426.433349609375,-6.4,early,6.685,5.59,False,0,False,False
8102,2026-02-19 23:39:00,82,Devon/Kedzie,41.846221923828125,-87.7148946126302,6478,False,6770046565070,Stockton & Armitage,Stockton & Dickens,1417.7833251953125,1.2,on_time,10.534,1.42,False,0,False,False
8102,2026-02-19 23:39:00,82,Devon/Kedzie,41.84755516052246,-87.71488189697266,6975,False,6770026396010,Sheridan & Oakdale,Sheridan & Wellington,1418.7332763671875,0.3,on_time,11.725,0.52,False,0,False,False
8102,2026-02-19 23:40:00,82,Devon/Kedzie,41.85386245315139,-87.71505819784629,9283,False,6770033550070,Sheridan & Berwyn,Sheridan & Balmoral,1419.6500244140625,0.3,on_time,14.891,0.27,False,0,False,False
8105,2026-02-19 23:38:00,21,Kedzie,41.85053503513336,-87.7954660654068,4558,False,6770047848070,Adams & Clark,Adams & Wells,1418.2667236328125,-0.3,on_time,13.749,1.63,False,0,False,False
8105,2026-02-19 23:40:00,21,Kedzie,41.85056686401367,-87.78926239013671,6250,False,6770024499070,Union Station Transit Center,Jackson & Chicago River,1419.699951171875,0.3,on_time,12.867,1.0,False,0,False,False
8109,2026-02-19 23:38:00,49,79th,41.97607434341331,-87.68921661376953,956,False,6770046565070,Stockton & Armitage,Stockton & Dickens,1417.7833251953125,0.2,on_time,7.635,1.7,False,0,False,False
8109,2026-02-19 23:40:00,49,79th,41.970467703683035,-87.68901203700474,3005,False,6770033392070,Sheridan & Pine Grove,Sheridan & Broadway,1419.8499755859375,0.2,on_time,3.772,0.65,False,0,False,False
8114,2026-02-19 23:38:00,94,74th/Damen,41.77234739415786,-87.69322204589844,73440,False,6770047848070,Adams & Clark,Adams & Wells,1418.2667236328125,-0.3,on_time,12.878,1.02,False,0,False,False
8114,2026-02-19 23:39:00,94,74th/Damen,41.77187957763672,-87.69320259094238,73610,False,6770033877070,Morse & Glenwood (Red Line),Morse & Lakewood,1421.4166259765625,-2.4,early,26.355,2.0,False,0,False,False
8114,2026-02-19 23:40:00,94,74th/Damen,41.76810269239472,-87.69311765345131,74989,False,6770044356020,Devon & Washtenaw,Devon & California,1420.0167236328125,-0.0,on_time,25.528,0.86,False,0,False,False
8118,2026-02-19 23:38:00,49,79th,41.86675281059451,-87.68609619140625,40849,False,6770009302010,Devon & Western,Devon & Oakley,1417.63330078125,0.4,on_time,14.562,0.59,False,0,False,False
8118,2026-02-19 23:40:00,49,79th,41.864830017089844,-87.68603964412914,41552,False,6770002022020,Chicago & Austin Terminal,Chicago & Mayfield,1419.183349609375,0.8,on_time,7.851,0.01,False,0,False,False
8119,2026-02-19 23:39:00,62,Kinzie/State,41.88598134782579,-87.6295091840956,68309,False,6770019760010,Chicago & Kilbourn,Chicago & Kostner,1419.816650390625,-0.8,on_time,8.857,0.6,False,0,False,False
8119,2026-02-19 23:40:00,62,Kinzie/State,41.88652712233523,-87.6295214713888,68511,False,6770034982020,Chicago & Campbell,Chicago & Rockwell,1419.0833740234375,0.9,on_time,5.273,0.13,False,0,False,False
8126,2026-02-19 23:38:00,9,95th Red Line,41.90215594951923,-87.66751861572266,26136,False,6770029768070,Chicago & Ashland,Chicago & Bishop,1421.2667236328125,-3.3,early,0.733,2.13,False,0,False,False
8126,2026-02-19 23:39:00,9,95th Red Line,41.89746693202427,-87.6674074445452,27844,False,6770014186020,Illinois & Lake Shore,Navy Pier Terminal,1416.0,3.0,on_time,4.786,3.22,False,0,False,False
8130,2026-02-19 23:39:00,63,Midway Orange Line,41.77940962049696,-87.66672939724393,23478,False,6770018081020,Grand & Fairbanks/Columbus,Fairbanks & Erie,1419.4666748046875,-0.5,on_time,13.321,0.52,False,0,False,False
8130,2026-02-19 23:40:00,63,Midway Orange Line,41.779348850250244,-87.67154788970947,24791,False,6770019760010,Chicago & Kilpatrick,Chicago & Kilbourn,1419.5833740234375,0.4,on_time,14.009,0.51,False,0,False,False
8132,2026-02-19 23:38:00,71,112th/Torrence,41.7658805847168,-87.59658276593244,9938,False,6770001025020,Milwaukee & Carpenter,Chicago & Milwaukee (Blue Line),1420.199951171875,-2.2,early,15.321,1.0,False,0,False,False
8132,2026-02-19 23:39:00,71,112th/Torrence,41.76591123853411,-87.59564127240863,10195,False,6770029768070,Chicago & Wolcott,Chicago & Wood,1419.2332763671875,-0.2,on_time,15.776,0.0,False,0,False,False
8132,2026-02-19 23:40:00,71,112th/Torrence,41.76596044457477,-87.58855123105256,12134,False,6770032117010,Chicago & Kostner,Chicago & Kilbourn,1418.4666748046875,1.5,on_time,18.988,0.64,False,0,False,False
8135,2026-02-19 23:39:00,12,15th/Indiana,41.861415,-87.622525,44574,False,6770021471010,Fairbanks & Superior,Chicago & Mies Van Der Rohe,1418.63330078125,0.4,on_time,3.94,0.7,False,0,False,False
8135,2026-02-19 23:40:00,12,15th/Indiana,41.861403333333335,-87.62252833333334,44574,False,6770043227070,Chicago & Kostner,Chicago & Kildare,1418.4666748046875,1.5,on_time,9.93,0.58,False,0,False,False
8140,2026-02-19 23:38:00,4,95th Red Line,41.8815224387429,-87.62446351484819,4648,False,6770001815010,67th Street & Cregier,67th Street & East End,1419.316650390625,-1.3,early,12.482,0.24,False,0,False,False
8140,2026-02-19 23:39:00,4,95th Red Line,41.87980924333845,-87.62444323585147,5271,False,6770029708010,69th Street & Halsted,69th Street & Peoria,1419.63330078125,-0.6,on_time,12.475,0.41,False,0,False,False
8141,2026-02-19 23:38:00,79,Ashland,41.75123977661133,-87.60831257834363,17881,False,6770041961020,67th Street & Oglesby,67th Street & Oglesby Terminal,1419.5,-1.5,early,4.19,0.26,False,0,False,False
8141,2026-02-19 23:39:00,79,Ashland,41.7512092590332,-87.61015319824219,18384,False,6770008108020,69th Street & Perry,69th Red Line Station,1421.0,-2.0,early,2.34,1.52,False,0,False,False
8141,2026-02-19 23:40:00,79,Ashland,41.75115807273171,-87.61477147882636,19655,False,6770009146020,Division & Wood,Division & Damen,1420.5167236328125,-0.5,on_time,17.682,0.02,False,0,False,False
8155,2026-02-19 23:38:00,79,Lakefront,41.751251220703125,-87.60760094984522,20537,False,6770026803020,Division & Pine,Division & Central,1419.0999755859375,-1.1,early,21.303,0.05,False,0,False,False
8155,2026-02-19 23:39:00,79,Lakefront,41.75127180567328,-87.60627516260686,20901,False,6770009287070,71st Street & Woodlawn,71st Street & Dorchester,1421.300048828125,-2.3,early,2.055,1.21,False,0,False,False
8155,2026-02-19 23:40:00,79,Lakefront,41.7513313293457,-87.60030806692023,22526,False,6770036901070,73rd Street & Yates,Yates & 72nd Street,1422.433349609375,-2.4,early,3.158,3.01,False,0,False,False
8172,2026-02-19 23:38:00,74,Halsted,41.925498962402344,-87.64924808424347,46248,False,6770001698070,Torrence & 112th Street Terminal,11100 S Torrence,1420.2833251953125,-2.3,early,26.789,1.0,False,0,False,False
8172,2026-02-19 23:38:00,74,Halsted,41.925498962402344,-87.64924808424347,46248,False,6770036901070,75th Street & Coles,Exchange & 74th Place,1420.0,-2.0,early,19.823,0.61,False,0,False,False
8172,2026-02-19 23:40:00,74,Halsted,41.925498962402344,-87.64924808424347,46248,False,6770028201020,71st Street & Michigan,71st Street & State,1419.8499755859375,0.2,on_time,17.899,0.2,False,1,True,False
8174,2026-02-19 23:39:00,20,Austin,41.882110595703125,-87.62515258789062,17,False,6770014121020,North Ave & Elston,North Ave & Bosworth,1419.5833740234375,-0.6,on_time,4.656,0.26,False,0,False,False
8174,2026-02-19 23:40:00,20,Austin,41.882110595703125,-87.62515258789062,17,False,6770009244020,North Ave & Kostner/Grand,North Ave & Kolmar,1419.7166748046875,0.3,on_time,9.98,0.1,False,0,False,False
8180,2026-02-19 23:38:00,12,Central/Harrison,41.87282192707062,-87.76485192775726,45500,False,6770032654020,Harlem & Wabansia,Wabansia & Neva,1417.36669921875,0.6,on_time,5.319,1.74,False,0,False,False
8180,2026-02-19 23:39:00,12,Central/Harrison,41.8722643601267,-87.76523047999332,45780,False,6770005941020,North Ave & Lockwood,North Ave & Laramie,1419.38330078125,-0.4,on_time,4.207,0.06,False,0,False,False
8185,2026-02-19 23:38:00,67,Ford City,41.75612,-87.73297333333333,51539,False,6770048473010,North Ave & Leclaire,North Ave & Laramie,1418.2667236328125,-0.3,on_time,17.172,0.84,False,0,False,False
8185,2026-02-19 23:39:00,67,Ford City,41.75612,-87.73297333333333,51539,False,6770004350070,North Ave & LaSalle,North Ave & Clark Terminal,1420.5,-1.5,early,19.204,1.12,False,0,False,False
8185,2026-02-19 23:40:00,67,Ford City,41.756121666666665,-87.732975,51539,False,6770047763070,Fullerton & California,Fullerton & Milwaukee,1420.5,-0.5,on_time,18.953,0.55,False,0,False,False
8187,2026-02-19 23:39:00,55,Midway Orange Line,41.794368041189095,-87.64164352416992,18558,False,6770035406020,Fullerton & Laramie,Fullerton & Lockwood,1419.88330078125,-0.9,on_time,17.38,0.72,False,0,False,False
8187,2026-02-19 23:40:00,55,Midway Orange Line,41.794309533160664,-87.64502085810122,19476,False,6770006090020,Fullerton & Mobile,Fullerton & Melvina,1419.066650390625,0.9,on_time,18.24,0.13,False,0,False,False
8191,2026-02-19 23:39:00,35,36th/Kedzie,41.82734680175781,-87.69573479729729,25936,False,6770026356020,Grand & Nordica Terminal,Grand & Sayre,1418.7166748046875,0.3,on_time,13.787,0.45,False,0,False,False
8191,2026-02-19 23:40:00,35,36th/Kedzie,41.82723136026351,-87.70135685654937,27469,False,6770010632010,Fullerton & Lavergne,Fullerton & Leclaire,1419.4166259765625,0.6,on_time,11.618,0.04,False,0,False,False
8210,2026-02-19 23:39:00,85,Bryn Mawr,41.93133697509766,-87.76625518798828,21496,False,6770018985070,Lincoln & Belden/Orchard,Fullerton & Halsted,1416.5,2.5,on_time,9.686,1.61,False,0,False,False
8210,2026-02-19 23:39:00,85,Bryn Mawr,41.93310287033302,-87.76631076094033,22140,False,6770029201020,Lafayette & 75th Street,Lafayette & 76th Street,1420.2332763671875,-1.2,early,22.796,1.1,False,0,False,False
8210,2026-02-19 23:40:00,85,Bryn Mawr,41.93901712754194,-87.76650941138173,24299,False,6770032945070,79th Street & Hamilton,79th Street & Oakley,1420.183349609375,-0.2,on_time,22.169,0.53,False,0,False,False
8211,2026-02-19 23:38:00,77,Cumberland,41.938994863758914,-87.71221160888672,23797,False,6770032540020,Diversey & Neva Terminal,Diversey & Nordica,1424.2332763671875,-6.2,early,7.561,4.5,False,0,False,False
8211,2026-02-19 23:39:00,77,Cumberland,41.938961029052734,-87.71221782543041,23797,False,6770024256020,Diversey & St. Louis,Milwaukee & Diversey/Kimball,1419.11669921875,-0.1,on_time,0.805,0.02,False,0,False,False
8211,2026-02-19 23:40:00,77,Cumberland,41.93924331665039,-87.7156114578247,24816,False,6770001150020,Diversey & Sacramento,Diversey & Albany,1420.5999755859375,-0.6,on_time,1.197,1.02,False,0,False,False
8228,2026-02-19 23:38:00,67,69th Red Line,41.769117401867376,-87.62589449998809,34756,False,6770000833020,Diversey & Marmora,Diversey & Austin,1417.8333740234375,0.2,on_time,21.891,1.28,False,0,False,False
8228,2026-02-19 23:39:00,67,69th Red Line,41.769117401867376,-87.62589449998809,34756,False,6770035749020,Sheridan & Diversey,Sheridan & Surf,1419.5,-0.5,on_time,18.424,0.22,False,0,False,False
8228,2026-02-19 23:40:00,67,69th Red Line,41.769117401867376,-87.62589449998809,34756,False,6770008462010,Belmont & Oakley,Belmont & Western/Clybourn,1418.63330078125,1.4,on_time,19.648,0.89,False,0,False,False
8232,2026-02-19 23:38:00,77,Diversey/Lake Shore,41.94002847504198,-87.646843090392,51195,False,6770011371070,Belmont & Kimball (Blue Line),Belmont & St. Louis,1421.4832763671875,-3.5,early,5.655,1.52,False,0,False,False
8232,2026-02-19 23:39:00,77,Diversey/Lake Shore,41.94003677368164,-87.64629966334293,51343,False,6770037802070,Belmont & Pontiac,Belmont & Cumberland Terminal,1421.0,-2.0,early,15.656,1.96,False,0,False,False
8232,2026-02-19 23:40:00,77,Diversey/Lake Shore,41.940120697021484,-87.63951887907805,53178,False,6770018434070,Belmont & Seminary,Belmont & Racine,1419.699951171875,0.3,on_time,1.631,0.47,False,0,False,False
8262,2026-02-19 23:39:00,52,Jackson,41.828100545065745,-87.70446014404297,19190,False,6770028455010,Belmont & Washtenaw,Belmont & Campbell,1420.5999755859375,-1.6,early,12.43,0.89,False,0,False,False
8262,2026-02-19 23:40:00,52,Jackson,41.8353268357574,-87.7047119140625,21825,False,6770029705020,Belmont & Orchard,Belmont & Broadway,1420.7166748046875,-0.7,on_time,12.676,1.15,False,0,False,False
8268,2026-02-19 23:38:00,82,Devon/Kedzie,41.836506666666665,-87.72566666666667,0,False,6770010228010,79th Street & Kilpatrick,79th Street & Kilbourn,1418.300048828125,-0.3,on_time,9.737,0.75,False,0,False,False
8268,2026-02-19 23:39:00,82,Devon/Kedzie,41.836506666666665,-87.725665,0,False,6770031230070,79th Street & Perry,79th Street & Wentworth,1420.13330078125,-1.1,early,12.395,0.55,False,0,False,False
8268,2026-02-19 23:40:00,82,Devon/Kedzie,41.836505,-87.725665,0,False,6770027758010,79th Street & Morgan,79th Street & Peoria,1419.449951171875,0.6,on_time,11.592,0.29,False,0,False,False
8278,2026-02-19 23:38:00,21,North Riverside Mall,41.85222625732422,-87.67264406798316,17774,False,6770012340010,76th Street & Ford City Movie Theatre,Ford City,1419.5,-1.5,early,11.838,0.02,False,0,False,False
8278,2026-02-19 23:39:00,21,North Riverside Mall,41.85218708855765,-87.67549310411725,18548,False,6770021539020,79th Street & Lake Shore Drive,79th Street & South Shore,1420.9000244140625,-1.9,early,15.318,0.5,False,0,False,False
8279,2026-02-19 23:38:00,60,Cicero/24th Pl,41.84604339599609,-87.7440414428711,49661,True,6770005108020,79th Street & Hamlin,79th Street & Lawndale,1419.550048828125,-1.6,early,11.006,0.05,False,0,False,False
8279,2026-02-19 23:40:00,60,Cicero/24th Pl,41.84604339599609,-87.7440414428711,49661,True,6770002395070,79th Street & Tripp,79th Street & Kostner,1418.4000244140625,1.6,on_time,10.791,1.11,False,1,True,False
8289,2026-02-19 23:38:00,82,31st/Pulaski,41.891846743496984,-87.7113265991211,39779,False,6770012340010,76th Street & Ford City Movie Theatre,Ford City,1419.5,-1.5,early,15.235,0.04,False,0,False,False
8289,2026-02-19 23:39:00,82,31st/Pulaski,41.890829535091626,-87.71130763783174,40149,False,6770025810010,79th Street & Campbell,79th Street & Western Terminal,1419.5,-0.5,on_time,15.744,0.04,False,0,False,False
8289,2026-02-19 23:40:00,82,31st/Pulaski,41.88991854483621,-87.71127185486911,40481,False,6770043919010,79th Street & Ashland,79th Street & Paulina,1419.1500244140625,0.8,on_time,15.959,0.35,False,0,False,False
8294,2026-02-19 23:38:00,82,Devon/Kedzie,41.95027646151456,-87.71281831914729,45876,False,6770025229070,79th Street & Western,79th Street & Campbell,1420.61669921875,-2.6,early,22.367,1.16,False,0,False,False
8294,2026-02-19 23:39:00,82,Devon/Kedzie,41.95204435984294,-87.71285247802734,46520,False,6770001504010,79th Street & Lafayette,79th Street & Perry,1419.5,-0.5,on_time,23.455,0.33,False,0,False,False
8294,2026-02-19 23:40:00,82,Devon/Kedzie,41.957014083862305,-87.71301651000977,48330,False,6770010072070,79th Street & Halsted,79th Street & Union,1419.5333251953125,0.5,on_time,23.702,0.03,False,0,False,False
8295,2026-02-19 23:39:00,60,Cicero/24th Pl,41.88195634499574,-87.63245117970003,6234,False,6770043059070,79th Street & California,79th Street & Washtenaw,1419.36669921875,-0.4,on_time,15.448,0.12,False,0,False,False
8295,2026-02-19 23:40:00,60,Cicero/24th Pl,41.881919860839844,-87.63623809814453,7267,False,6770045954070,Irving Park & Harlem,Forest Preserve Avenue & Harlem/Irving Park,1419.0,1.0,on_time,16.338,0.07,False,0,False,False
8303,2026-02-19 23:38:00,36,LaSalle Metra Station,41.876930236816406,-87.6288833618164,52223,False,6770020856010,Forest Preserve Avenue & Harlem/Irving Park,Irving Park & Harlem,1421.5167236328125,-3.5,early,16.967,0.2,False,0,False,False
8303,2026-02-19 23:40:00,36,LaSalle Metra Station,41.876853942871094,-87.6333236694336,53431,False,6770020732010,Irving Park Blue Line Station,Irving Park & Pulaski,1421.0,-1.0,on_time,11.569,1.57,False,0,False,False
8306,2026-02-19 23:39:00,53,Peterson,41.989975,-87.72843333333333,90440,False,6770045954070,Irving Park & Nordica,Irving Park & Harlem,1418.0833740234375,0.9,on_time,7.702,1.4,False,0,False,False
8306,2026-02-19 23:40:00,53,Peterson,41.989975,-87.72843333333333,90440,False,6770043790070,Irving Park & Kenmore,Irving Park & Clark,1420.5167236328125,-0.5,on_time,6.759,1.37,False,0,False,False
8310,2026-02-19 23:38:00,21,North Riverside Mall,41.851871490478516,-87.69861227567078,24827,False,6770029010020,Irving Park & Keeler,Irving Park Blue Line Station,1420.1666259765625,-2.2,early,11.602,0.58,False,0,False,False
8310,2026-02-19 23:39:00,21,North Riverside Mall,41.85181219681449,-87.70279013592264,25962,False,6770030857020,Irving Park & Narragansett,Irving Park & Natchez,1419.0999755859375,-0.1,on_time,13.312,0.37,False,0,False,False
8312,2026-02-19 23:39:00,60,Cicero/24th Pl,41.84430717019474,-87.72498501048369,42101,False,6770008466020,Lawrence & Lamon,Lawrence & Cicero,1418.9000244140625,0.1,on_time,13.881,0.15,False,0,False,False
8312,2026-02-19 23:40:00,60,Cicero/24th Pl,41.84416961669922,-87.73088916979339,43698,False,6770030497070,Lawrence & Kostner,Lawrence & Elston,1417.9166259765625,2.1,on_time,13.813,1.26,False,0,False,False
8325,2026-02-19 23:38:00,71,112th/Torrence,41.73771755511944,-87.55146026611328,32814,False,6770034207020,Lawrence & Hermitage,Lawrence & Ravenswood,1420.316650390625,-2.3,early,27.641,1.0,False,0,False,False
8325,2026-02-19 23:39:00,71,112th/Torrence,41.73738098144531,-87.5508006327861,33119,False,6770034503020,Lawrence & Hamlin,Lawrence & Springfield,1418.36669921875,0.6,on_time,29.481,1.16,False,0,False,False
8325,2026-02-19 23:40:00,71,112th/Torrence,41.73139176001916,-87.54989624023438,35514,False,6770008771070,Devon & Kedzie Terminal,McCormick & Devon,1422.6500244140625,-2.7,early,32.443,3.0,False,0,False,False
8330,2026-02-19 23:38:00,29,Navy Pier,41.890869140625,-87.62841796875,62182,False,6770019360020,Central Park & 25th Street,Central Park & 24th Street,1418.25,-0.2,on_time,8.6,0.85,False,0,False,False
8330,2026-02-19 23:40:00,29,Navy Pier,41.890275,-87.62813666666666,62265,False,6770002089020,Kimball & Wrightwood,Kimball & Shubert,1421.3499755859375,-1.3,early,8.245,1.61,False,0,False,False
8333,2026-02-19 23:38:00,71,69th Red Line,41.760314874481736,-87.5577198497036,29729,False,6770004883070,Kimball & Byron,Kimball & Irving Park,1419.5,-1.5,early,25.051,0.05,False,0,False,False
8333,2026-02-19 23:39:00,71,69th Red Line,41.75951678936298,-87.55929624117337,30249,False,6770023716010,31st Street & Pulaski,31st Street & Springfield,1417.63330078125,1.4,on_time,15.992,1.58,False,0,False,False
8333,2026-02-19 23:40:00,71,69th Red Line,41.76098845725836,-87.56177130410838,31327,False,6770020459010,Kimball & Dickens,Kimball & Armitage,1422.0167236328125,-2.0,early,21.367,2.33,False,0,False,False
8349,2026-02-19 23:38:00,76,Logan Square,41.931151666666665,-87.805665,0,False,6770033434020,Homan & Ohio,Homan & Franklin,1419.0833740234375,-1.1,early,9.031,0.08,False,0,False,False
8349,2026-02-19 23:39:00,76,Logan Square,41.931151666666665,-87.805665,0,False,6770029043010,Central & Lake,Central & Race,1418.699951171875,0.3,on_time,5.745,0.34,False,0,False,False
8349,2026-02-19 23:40:00,76,Logan Square,41.931151666666665,-87.805665,15,False,6770026236070,Central & Wellington,Central & Barry,1420.9166259765625,-0.9,on_time,3.309,1.84,False,0,False,False
8359,2026-02-19 23:38:00,76,Harlem,41.932090759277344,-87.70007089468149,19240,False,6770026236070,Central & George,Central & Wellington,1420.3499755859375,-2.3,early,5.487,0.82,False,0,False,False
8359,2026-02-19 23:39:00,76,Harlem,41.93206024169922,-87.7023672708651,19862,False,6770038097020,Central & Bryn Mawr,Bryn Mawr & Linder,1418.9666748046875,0.0,on_time,7.723,0.13,False,0,False,False
8359,2026-02-19 23:40:00,76,Harlem,41.93206348419189,-87.70256334940592,19916,False,6770012412010,87th Street & Union,87th Street & Halsted,1419.449951171875,0.6,on_time,22.314,0.21,False,0,False,False
8366,2026-02-19 23:39:00,77,Cumberland,41.937311666666666,-87.835515,57648,True,6770026513070,87th Street & Stony Island (Farside),87th Street & East End,1417.7833251953125,1.2,on_time,30.571,1.66,False,0,False,False
8366,2026-02-19 23:39:00,77,Cumberland,41.937311666666666,-87.835515,57648,True,6770009163020,87th Street & Cicero Terminal,Cicero & 87th Street,1421.2166748046875,-2.2,early,23.902,1.29,False,0,False,False
8366,2026-02-19 23:40:00,77,Cumberland,41.937311666666666,-87.835515,57648,True,6770003391020,200 W 87th Street,87th Street & Holland,1417.88330078125,2.1,on_time,27.979,1.19,False,0,False,False
8369,2026-02-19 23:40:00,77,Cumberland,41.93723333333333,-87.835575,57620,False,6770026513070,87th Street & Stony Island (Nearside),87th Street & Stony Island (Farside),1417.2332763671875,2.8,on_time,30.463,1.96,False,0,False,False
8370,2026-02-19 23:38:00,76,Logan Square,41.93194068350443,-87.7146593419517,24842,False,6770031711020,Harlem & Sunnyside,Harlem & Wilson,1421.566650390625,-3.6,early,8.408,2.35,False,0,False,False
8370,2026-02-19 23:39:00,76,Logan Square,41.93197995699369,-87.71226959228515,25489,False,6770024927020,California & 19th Street,California & 18th Street,1418.300048828125,0.7,on_time,8.419,0.85,False,0,False,False
8370,2026-02-19 23:40:00,76,Logan Square,41.93080827666492,-87.71025811172113,26191,False,6770029477020,71st Street & California,71st Street & Washtenaw,1419.2667236328125,0.7,on_time,18.559,0.0,False,0,False,False
8378,2026-02-19 23:38:00,85,Bryn Mawr,41.98242404009845,-87.76835632324219,42722,False,6770037474020,California & Addison,California & Roscoe,1418.199951171875,-0.2,on_time,7.288,0.96,False,0,False,False
8378,2026-02-19 23:39:00,85,Bryn Mawr,41.982940673828125,-87.76658630371094,43390,False,6770021321020,California & Jackson,California & Harrison,1420.88330078125,-1.9,early,13.481,0.74,False,0,False,False
8378,2026-02-19 23:40:00,85,Bryn Mawr,41.98344063392052,-87.76434326171875,44088,False,6770026783070,47th Street & Rockwell,47th Street & Campbell,1421.38330078125,-1.4,early,20.497,1.72,False,0,False,False
8381,2026-02-19 23:39:00,81,Jefferson Park Blue Line,41.968849182128906,-87.67194768002159,7311,False,6770039361070,California & Marquette Rd,California & 68th Street,1418.36669921875,0.6,on_time,22.172,1.25,False,0,False,False
8381,2026-02-19 23:39:00,81,Jefferson Park Blue Line,41.9688328229464,-87.67276147695688,7533,False,6770011166010,95th Street & Leavitt,95th Street & Hoyne,1419.066650390625,-0.1,on_time,27.564,0.52,False,0,False,False
8381,2026-02-19 23:40:00,81,Jefferson Park Blue Line,41.96878528594971,-87.67684745788574,8642,False,6770044530070,95th Street & Eggleston,95th Street & Normal,1417.25,2.8,on_time,27.687,2.21,False,0,False,False
8382,2026-02-19 23:39:00,80,Harlem,41.95295604906584,-87.78641971788909,36668,False,6770005376020,Woodlawn & 94th Street,95th Street & Woodlawn,1419.7166748046875,-0.7,on_time,30.196,0.04,False,0,False,False
8382,2026-02-19 23:39:00,80,Harlem,41.95295604906584,-87.78641971788909,36668,False,6770006358020,93rd Street & Colfax,93rd Street & Essex,1418.7833251953125,0.2,on_time,31.252,0.34,False,0,False,False
8382,2026-02-19 23:40:00,80,Harlem,41.952863925840795,-87.78994918451076,37614,False,6770007584020,Western & 119th Street Terminal,119th Street & Western,1422.38330078125,-2.4,early,31.976,3.02,False,0,False,False
8383,2026-02-19 23:39:00,119,95th Red Line,41.678367614746094,-87.68048858642578,43,False,6770026597020,Michigan & 102nd Street,Michigan & 103rd Street,1419.9000244140625,-0.9,on_time,5.945,0.44,False,0,False,False
8383,2026-02-19 23:39:00,119,95th Red Line,41.678367614746094,-87.68048858642578,43,False,6770044397020,119th Street & Bell,Western & 119th Street Terminal,1419.0,0.0,on_time,0.102,0.06,False,0,False,False
8383,2026-02-19 23:40:00,119,95th Red Line,41.678367614746094,-87.68048858642578,43,False,6770016676070,Van Buren & Peoria,Van Buren & Morgan,1418.4166259765625,1.6,on_time,22.173,1.12,False,0,False,False
8390,2026-02-19 23:38:00,34,95th Red Line,41.722286470474735,-87.62484741210938,34225,False,6770045103020,Solidarity Dr & Lynn White Drive,Solidarity Drive & Aquarium,1418.0333251953125,-0.0,on_time,16.059,1.26,False,0,False,False
8390,2026-02-19 23:39:00,34,95th Red Line,41.72266387939453,-87.6248550415039,34301,False,6770002711070,State & E. Wacker,Michigan & South Water,1420.3499755859375,-1.3,early,18.29,1.16,False,0,False,False
8398,2026-02-19 23:38:00,8,79th,41.9319098336356,-87.64898742191376,6987,False,6770002711070,State & E. Wacker,Michigan & South Water,1420.3499755859375,-2.3,early,5.377,1.19,False,0,False,False
8398,2026-02-19 23:40:00,8,79th,41.927027566092356,-87.64881896972656,8763,False,6770015384010,Marine Drive & Leland,Marine Drive & Lawrence,1419.449951171875,0.6,on_time,4.707,0.39,False,0,False,False
8400,2026-02-19 23:38:00,15,47th Red Line,41.707908630371094,-87.57724410768539,1321,False,6770043168010,Michigan & South Water,Michigan & Hubbard (Tribune Bldg.),1421.1500244140625,-3.2,early,20.638,0.32,False,0,False,False
8400,2026-02-19 23:40:00,15,47th Red Line,41.708091735839844,-87.56566874186198,4475,False,6770043168010,Michigan & Huron,Michigan & Chestnut,1426.433349609375,-6.4,early,21.671,5.59,False,0,False,False
8406,2026-02-19 23:39:00,29,Navy Pier,41.73389883602367,-87.62409210205078,4071,False,6770046565070,Stockton & Dickens,Stockton & Webster,1418.1500244140625,0.8,on_time,20.93,0.98,False,0,False,False
8406,2026-02-19 23:40:00,29,Navy Pier,41.73722855588223,-87.62416661039312,5283,False,6770026396010,Sheridan & Oakdale,Sheridan & Wellington,1418.7332763671875,1.3,on_time,22.223,0.43,False,0,False,False
8412,2026-02-19 23:38:00,66,Austin,41.89523903099266,-87.73354545799461,37964,False,6770016422010,Michigan & Pearson,Michigan & Superior,1419.1666259765625,-1.2,early,9.032,0.33,False,0,False,False
8412,2026-02-19 23:39:00,66,Austin,41.895217070708405,-87.73773873818887,39106,False,6770047848070,Adams & Clark,Adams & Wells,1418.2667236328125,0.7,on_time,8.762,0.9,False,0,False,False
8412,2026-02-19 23:40:00,66,Austin,41.89506149291992,-87.74285507202148,40498,False,6770024499070,Union Station Transit Center,Jackson & Chicago River,1419.699951171875,0.3,on_time,8.859,0.0,False,0,False,False
8432,2026-02-19 23:39:00,119,Western,41.7109495134496,-87.61991483773758,5517,False,6770046565070,Stockton & Dickens,Stockton & Webster,1418.1500244140625,0.8,on_time,23.496,1.17,False,0,False,False
8432,2026-02-19 23:39:00,119,Western,41.7091683474454,-87.61997604370117,6171,False,6770033392070,Sheridan & Broadway,Sheridan & Fremont,1420.5999755859375,-1.6,early,27.22,1.51,False,0,False,False
8432,2026-02-19 23:40:00,119,Western,41.70737353238192,-87.62026006525213,6835,False,6770047848070,Adams & Wells,Adams & S. Wacker,1419.3333740234375,0.7,on_time,19.177,0.06,False,0,False,False
8443,2026-02-19 23:39:00,28,47th/Lake Park,41.77842751864729,-87.58641578411233,26815,False,6770033877070,Morse & Lakewood,Morse & Sheridan,1421.933349609375,-2.9,early,26.269,2.44,False,0,False,False
8443,2026-02-19 23:39:00,28,47th/Lake Park,41.78301527693465,-87.58651217898807,28500,False,6770044356020,Devon & Francisco,Devon & Sacramento,1421.5,-2.5,early,25.783,1.68,False,0,False,False
8444,2026-02-19 23:38:00,6,Wacker/Columbus,41.88095474243164,-87.62422943115234,61312,False,6770003958020,Devon & Oakley,Devon & Leavitt,1419.9166259765625,-1.9,early,13.922,0.19,False,0,False,False
8444,2026-02-19 23:39:00,6,Wacker/Columbus,41.88314916573319,-87.6242301791322,62065,False,6770042248020,King Drive & 62nd Street,King Drive & 63rd Street (Green Line),1420.86669921875,-1.9,early,11.439,0.62,False,0,False,False
8445,2026-02-19 23:38:00,28,103rd/Stony Island,41.70852502187093,-87.58145523071289,40712,False,6770043123020,Michigan & Jackson,Michigan & Monroe,1419.9666748046875,-2.0,early,19.467,0.28,False,0,False,False
8445,2026-02-19 23:39:00,28,103rd/Stony Island,41.70852502187093,-87.58145523071289,40712,False,6770035892070,Fairbanks & Superior,Chicago & Mies Van Der Rohe,1423.0833740234375,-4.1,early,21.205,3.32,False,0,False,False
8449,2026-02-19 23:39:00,87,Western,41.73616409301758,-87.64061014275802,27407,False,6770015156020,Michigan & 11th Street,Michigan & Roosevelt,1419.3499755859375,-0.3,on_time,14.625,0.12,False,0,False,False
8449,2026-02-19 23:39:00,87,Western,41.73615301223028,-87.64126356821211,27586,False,6770038772070,McCormick Place,King Drive & 25th Street,1418.550048828125,0.4,on_time,12.514,1.32,False,0,False,False
8449,2026-02-19 23:40:00,87,Western,41.73603439331055,-87.64675993077896,29086,False,6770035767070,King Drive & 51st Street,5200 S King Drive,1417.300048828125,2.7,on_time,7.592,3.11,False,0,False,False
8455,2026-02-19 23:39:00,95,95th Red Line,41.73263168334961,-87.68251037597656,3913,False,6770037163010,Cermak & Prairie,Michigan & Cermak,1421.63330078125,-2.6,early,14.265,1.93,False,0,False,False
8455,2026-02-19 23:39:00,95,95th Red Line,41.72850799560547,-87.682373046875,5424,False,6770031275020,Michigan & 98th Street,State & 95th Street,1421.0,-2.0,early,4.938,0.21,False,0,False,False
8455,2026-02-19 23:40:00,95,95th Red Line,41.72309112548828,-87.68224334716797,7405,False,6770012057020,Michigan & Monroe,Michigan & Madison,1416.5,3.5,on_time,18.353,3.26,False,0,False,False
8457,2026-02-19 23:39:00,79,Ford City,41.750404357910156,-87.65975997027229,31948,False,6770015144010,Cottage Grove & Drexel Square Drive,Cottage Grove & 51st Street,1422.550048828125,-3.6,early,7.293,2.4,False,0,False,False
8457,2026-02-19 23:39:00,79,Ford City,41.75036176045736,-87.66266123453777,32740,False,6770021855020,Michigan & Cermak,Michigan & 21st Street,1421.13330078125,-2.1,early,12.023,1.03,False,0,False,False
8457,2026-02-19 23:40:00,79,Ford City,41.750308990478516,-87.6659761754478,33644,False,6770018990020,Michigan & Monroe,Michigan & Jackson,1419.75,0.2,on_time,14.657,0.06,False,0,False,False
8458,2026-02-19 23:38:00,8,Waveland/Broadway,41.9034714212223,-87.6568902463329,58877,False,6770021552020,Michigan & 31st Street,Michigan & 32nd Street,1419.75,-1.8,early,7.972,0.38,False,0,False,False
8458,2026-02-19 23:39:00,8,Waveland/Broadway,41.90360432286416,-87.65057545323526,60597,False,6770022303070,Cottage Grove & 54th Street,Cottage Grove & 55th Street,1419.3499755859375,-0.3,on_time,12.61,0.18,False,0,False,False
8467,2026-02-19 23:38:00,4,Illinois Center,41.849594822636355,-87.62364366319444,65130,False,6770024712070,Cottage Grove & 81st Street,Cottage Grove & 82nd Street,1420.933349609375,-2.9,early,11.629,0.52,False,0,False,False
8467,2026-02-19 23:40:00,4,Illinois Center,41.85417458318895,-87.62371826171875,66806,False,6770007427010,State & Monroe,State & Jackson,1421.0167236328125,-1.0,on_time,2.707,1.93,False,0,False,False
8469,2026-02-19 23:38:00,28,103rd/Stony Island,41.776923015199856,-87.58637540093784,12509,False,6770008745070,Lake Park & 48th Street,Lake Park & 47th Street Terminal,1417.949951171875,0.1,on_time,3.609,1.18,False,0,False,False
8469,2026-02-19 23:40:00,28,103rd/Stony Island,41.771210289001466,-87.5863037109375,14593,False,6770025305010,Stony Island & 65th Street,67th Street & Cornell,1417.2667236328125,2.7,on_time,0.25,3.13,False,0,False,False
8471,2026-02-19 23:39:00,53A,115th,41.79819869995117,-87.723388671875,1163,False,6770008590010,S. Shore Drive & 79th Street,79th Street & Lake Shore Drive,1418.0,1.0,on_time,15.67,1.46,False,0,False,False
8471,2026-02-19 23:40:00,53A,115th,41.794639587402344,-87.72329711914062,2458,False,6770025136070,1100 S Columbus (Pedestrian Underpass),Lake Park & 47th Street,1424.1666259765625,-4.2,early,11.031,0.17,False,0,False,False
8473,2026-02-19 23:38:00,8A,127th,41.75106430053711,-87.6275634765625,0,False,6770029523020,Michigan & Madison,Michigan & Randolph,1419.816650390625,-1.8,early,14.862,0.33,False,0,False,False
8473,2026-02-19 23:40:00,8A,127th,41.75080490112305,-87.63270568847656,1412,False,6770018251020,Halsted & Altgeld,Halsted & Lincoln/Fullerton,1420.5833740234375,-0.6,on_time,19.424,0.11,False,0,False,False
8474,2026-02-19 23:39:00,119,Western,41.67760330775999,-87.67984008789062,33845,False,6770002362070,Halsted & Milwaukee/Grand (Blue Line),Halsted & Fulton Market,1422.0333251953125,-3.0,early,23.427,0.17,False,0,False,False
8474,2026-02-19 23:39:00,119,Western,41.67832374572754,-87.67989085270808,34110,False,6770030890020,Halsted & 16th Street,Halsted & 14th Place,1418.7332763671875,0.3,on_time,20.632,0.4,False,0,False,False
8474,2026-02-19 23:40:00,119,95th Red Line,41.67839166666667,-87.680215,0,False,6770018968020,Halsted & Garfield,Halsted & 56th Street,1421.2166748046875,-1.2,early,13.022,1.92,False,1,False,True
8475,2026-02-19 23:38:00,6,79th/South Shore,41.88518142700195,-87.6222915649414,1603,False,6770045774020,Halsted & 78th Street,Halsted & 79th Street,1416.5833740234375,1.4,on_time,15.056,3.01,False,0,False,False
8483,2026-02-19 23:38:00,71,69th Red Line,41.765663146972656,-87.62094298405434,49153,False,6770045774020,Halsted & 79th Street,Halsted & 79th Street Terminal,1417.0,1.0,on_time,2.583,2.37,False,0,False,False
8483,2026-02-19 23:39:00,71,69th Red Line,41.76565074920654,-87.62169933319092,49359,False,6770030890020,Halsted & Maxwell,Halsted & Roosevelt,1420.5833740234375,-1.6,early,11.531,1.36,False,0,False,False
8483,2026-02-19 23:40:00,71,69th Red Line,41.768809167962324,-87.62573623657227,51624,False,6770018968020,Halsted & 52nd Street,Halsted & 53rd Street,1419.699951171875,0.3,on_time,3.603,0.3,False,0,False,False
8485,2026-02-19 23:38:00,29,Navy Pier,41.87056706168435,-87.62742163918234,53968,False,6770020429020,Halsted & Belmont,Halsted & Aldine,1421.11669921875,-3.1,early,8.116,1.5,False,0,False,False
8485,2026-02-19 23:39:00,29,Navy Pier,41.872296780956034,-87.62747192382812,54599,False,6770044044020,127th Street & Halsted,Halsted & 126th Street,1420.5333251953125,-1.5,early,23.085,0.32,False,0,False,False
8488,2026-02-19 23:39:00,34,131st & Ellis,41.659327295091416,-87.61852179633246,25023,False,6770026281020,Halsted & 104th Street,Halsted & 105th Street,1420.433349609375,-1.4,early,5.305,1.04,False,0,False,False
8488,2026-02-19 23:40:00,34,131st & Ellis,41.659327295091416,-87.61852179633246,25023,False,6770005777070,79th Street & Wentworth,Perry & 79th Street Terminal,1415.5,4.5,on_time,10.23,4.93,False,0,False,False
8498,2026-02-19 23:38:00,6,79th/South Shore,41.83343505859375,-87.60765838623047,26515,False,6770034556010,Halsted & 112th Street,Halsted & 113th Street,1420.0,-2.0,early,16.332,0.02,False,0,False,False
8498,2026-02-19 23:39:00,6,79th/South Shore,41.82204055786133,-87.59896850585938,31353,False,6770020315020,Ashland & Addison,Ashland & Roscoe,1420.4166259765625,-1.4,early,14.657,0.28,False,0,False,False
8507,2026-02-19 23:38:00,8,79th,41.75437491280692,-87.6441421508789,77040,False,6770026512010,Ashland & Garfield,Ashland & 53rd Street,1420.2667236328125,-2.3,early,5.096,1.01,False,0,False,False
8507,2026-02-19 23:39:00,8,79th,41.75062390031486,-87.64402770996094,78407,False,6770044983020,Ashland & 18th Street,Ashland & Cullerton,1421.0,-2.0,early,11.768,0.81,False,0,False,False
8521,2026-02-19 23:38:00,15,103rd/Stony Island,41.77692097630994,-87.58637553247912,24631,False,6770025227070,Ashland & 14th Street,Ashland & Roosevelt,1419.63330078125,-1.6,early,11.976,0.64,False,0,False,False
8521,2026-02-19 23:40:00,15,103rd/Stony Island,41.77334976196289,-87.58574561353,26084,False,6770046017020,95th Street & Ashland,95th Street & Winston,1423.933349609375,-3.9,early,8.514,4.64,False,0,False,False
8525,2026-02-19 23:39:00,95,92nd/Buffalo,41.72633361816406,-87.5573501586914,8676,False,6770002441020,Ashland & 70th Street,Ashland & 69th Street,1417.7833251953125,1.2,on_time,10.009,2.38,False,0,False,False
8525,2026-02-19 23:39:00,95,92nd/Buffalo,41.72663879394531,-87.55367279052734,9722,False,6770024669010,Ashland & 14th Street,Ashland & Roosevelt,1423.11669921875,-4.1,early,18.155,1.77,False,0,False,False
8525,2026-02-19 23:40:00,95,92nd/Buffalo,41.72822952270508,-87.55169677734375,10645,False,6770048807020,Ashland & North Ave,Ashland & Cortland,1421.183349609375,-1.2,early,22.989,0.03,False,0,False,False
8529,2026-02-19 23:38:00,79,Lakefront,41.75195829329952,-87.54821162069997,58192,False,6770008871070,Ashland & 73rd Street,Ashland & 74th Street,1416.61669921875,1.4,on_time,9.62,3.89,False,0,False,False
8529,2026-02-19 23:39:00,79,Lakefront,41.751052122849686,-87.54452808086688,59253,False,6770018865020,1440 S Indiana,Indiana & 15th Place,1420.5,-1.5,early,13.856,0.46,False,0,False,False
8529,2026-02-19 23:40:00,79,Lakefront,41.75200711266469,-87.54546252751754,59840,False,6770000113010,Roosevelt & Michigan,Roosevelt Orange/Red/Green Line Station,1416.11669921875,3.9,on_time,14.505,4.05,False,0,False,False
8541,2026-02-19 23:39:00,95,87th/Damen,41.7214290982201,-87.65070724487305,33472,False,6770009019070,Roosevelt & Homan,Roosevelt & St. Louis,1419.9000244140625,-0.9,on_time,16.925,0.76,False,0,False,False
8541,2026-02-19 23:39:00,95,87th/Damen,41.72138977050781,-87.65301792796065,34102,False,6770003363020,Central & Fillmore,Central & Harrison Terminal,1415.5,3.5,on_time,19.196,3.68,False,0,False,False
8541,2026-02-19 23:40:00,95,87th/Damen,41.721331345407584,-87.65778230365954,35402,False,6770022295020,1100 S Columbus (Pedestrian Underpass),Jeffery & 67th Street,1419.0833740234375,0.9,on_time,8.865,4.32,False,0,False,False
8543,2026-02-19 23:39:00,79,Lakefront,41.75006103515625,-87.68301391601562,22503,False,6770042626070,Jeffery & 83rd Street/South Chicago,Jeffery & 87th Street,1422.566650390625,-3.6,early,9.014,0.7,False,0,False,False
8543,2026-02-19 23:39:00,79,Lakefront,41.750897250958346,-87.68272342966564,22866,False,6770004532070,103rd Street & Luella,103rd Street & Stony Island Garage Terminal,1417.5,1.5,on_time,9.654,1.62,False,0,False,False
8543,2026-02-19 23:40:00,79,Lakefront,41.75010721307052,-87.68119932475842,23518,False,6770001639020,47th Red Line Station,Wells & 47th Street,1419.4000244140625,0.6,on_time,7.667,0.04,False,0,False,False
8544,2026-02-19 23:39:00,53A,Pulaski Orange Line,41.68414166666667,-87.71714,0,False,6770049820070,Stony Island & 65th Street,67th Street & Cornell,1420.0333251953125,-1.0,on_time,14.771,0.1,False,0,False,False
8544,2026-02-19 23:40:00,53A,Pulaski Orange Line,41.68414166666667,-87.71714,0,False,6770048211070,51st Street & Federal,51st Street & State,1420.3333740234375,-0.3,on_time,15.114,0.28,False,0,False,False
8547,2026-02-19 23:38:00,66,Navy Pier,41.89244842529297,-87.61138916015625,49548,False,6770006546020,5800 S Stony Island,Stony Island & 57th Drive,1417.3499755859375,0.7,on_time,11.427,1.77,False,0,False,False
8547,2026-02-19 23:39:00,66,Navy Pier,41.89289855957031,-87.61003112792969,50019,False,6770012268010,Madison & Austin Terminal,Madison & Mayfield,1420.7667236328125,-1.8,early,13.441,0.02,False,0,False,False
8547,2026-02-19 23:40:00,66,Navy Pier,41.89231491088867,-87.6100082397461,50177,False,6770002740070,Madison & Wood,Madison & United Center (1900 W),1420.2332763671875,-0.2,on_time,5.453,0.15,False,0,False,False
8557,2026-02-19 23:38:00,8,79th,41.846907479422434,-87.64768888512437,42276,False,6770008587070,Madison & Peoria,Halsted & Madison,1418.1500244140625,-0.2,on_time,3.903,1.1,False,0,False,False
8557,2026-02-19 23:39:00,8,79th,41.846907479422434,-87.64768888512437,42276,False,6770041003020,Madison & Austin Terminal,Madison & Mayfield,1419.7667236328125,-0.8,on_time,10.892,0.0,False,0,False,False
8560,2026-02-19 23:38:00,87,91st/Commercial,41.73691177368164,-87.58627492731267,43619,False,6770010268070,Madison & St. Louis,Madison & Homan,1420.0999755859375,-2.1,early,19.041,0.49,False,0,False,False
8560,2026-02-19 23:39:00,87,91st/Commercial,41.73691940307617,-87.58553695678711,43821,False,6770021139010,Cermak & Wolcott,Cermak & Damen,1419.0167236328125,-0.0,on_time,14.862,0.12,False,0,False,False
8560,2026-02-19 23:40:00,87,91st/Commercial,41.73685706289191,-87.58487340023643,44015,False,6770038633020,Cermak & Lawndale,Cermak & Central Park,1418.9666748046875,1.0,on_time,16.697,0.48,False,0,False,False
8567,2026-02-19 23:39:00,53,Ford City,41.89558029174805,-87.72608184814453,34731,False,6770045045020,Cermak & Riverside Drive,Cermak & East,1418.199951171875,0.8,on_time,7.208,1.9,False,0,False,False
8567,2026-02-19 23:40:00,53,Ford City,41.892180702903055,-87.72596463290128,35972,False,6770021510010,Paulina & Howard Terminal,Clark & Howard,1425.2166748046875,-5.2,early,14.707,4.0,False,0,False,False
8568,2026-02-19 23:38:00,53,Peterson,41.892904593727806,-87.72599792480469,54913,False,6770008908070,Dearborn & Randolph,Dearborn & Wacker/Lake,1422.4000244140625,-4.4,early,8.031,2.01,False,0,False,False
8568,2026-02-19 23:40:00,53,Peterson,41.8953523307011,-87.72606658935547,55808,False,6770000394020,Clark & Arlington,Clark & Deming,1419.199951171875,0.8,on_time,7.869,0.1,False,0,False,False
8571,2026-02-19 23:38:00,66,Navy Pier,41.89607068112022,-87.66713333129883,29277,False,6770004541070,Clark & Cullom,Clark & Montrose,1419.88330078125,-1.9,early,7.313,0.27,False,0,False,False
8571,2026-02-19 23:39:00,66,Navy Pier,41.89611029624939,-87.66472212473552,29933,False,6770021116070,Clark & Devon,Clark & Arthur,1421.933349609375,-2.9,early,11.643,1.18,False,0,False,False
8571,2026-02-19 23:40:00,66,Navy Pier,41.89617156982422,-87.66165968088004,30763,False,6770015253010,Clark & Thorndale,Clark & Edgewater,1419.4166259765625,0.6,on_time,10.015,0.2,False,0,False,False
8578,2026-02-19 23:39:00,54,Montrose,41.93625259399414,-87.74665832519531,32866,False,6770030446010,Clark & Belmont,Clark & School/Aldine,1421.316650390625,-2.3,early,7.86,1.2,False,0,False,False
8578,2026-02-19 23:40:00,54,Montrose,41.94101669539267,-87.7467146916176,34609,False,6770040286020,Clark & Randolph,Clark & Adams,1423.566650390625,-3.6,early,11.804,0.18,False,0,False,False
8580,2026-02-19 23:39:00,53,Ford City,41.84296905994415,-87.72451174259186,53944,False,6770005081020,Stony Island & 68th Street,Stony Island & 69th Street,1419.9832763671875,-1.0,on_time,14.05,0.65,False,0,False,False
8580,2026-02-19 23:40:00,53,Ford City,41.839807739257814,-87.72442977905274,55104,False,6770014789010,Stony Island & 95th Street,103rd Street & Stony Island Garage Terminal,1419.5,0.5,on_time,18.819,0.48,False,0,False,False
8581,2026-02-19 23:39:00,54,Montrose,41.870548774456154,-87.74478202030576,8883,False,6770027815020,Stony Island & 62nd Street,Stony Island & 60th Street,1422.2667236328125,-3.3,early,16.135,2.26,False,0,False,False
8581,2026-02-19 23:40:00,54,Montrose,41.87131278298118,-87.74479619806463,9162,False,6770042821070,State & Grand (Red Line),State & Hubbard,1423.7833251953125,-3.8,early,9.885,3.49,False,0,False,False
8583,2026-02-19 23:39:00,54,24th Pl,41.85226068496704,-87.74429874420166,39700,False,6770014514020,State & 9th Street,State & Balbo,1423.4000244140625,-4.4,early,9.949,4.15,False,0,False,False
8583,2026-02-19 23:40:00,54,24th Pl,41.846504818309434,-87.744140625,41810,False,6770003690070,Dearborn & Hubbard,Illinois & State,1416.699951171875,3.3,on_time,10.824,3.41,False,0,False,False
8586,2026-02-19 23:38:00,74,Pulaski,41.92364501953125,-87.7837905883789,4940,False,6770013699020,State & 72nd Street,State & 71st Street,1420.566650390625,-2.6,early,21.992,1.38,False,0,False,False
8586,2026-02-19 23:39:00,74,Pulaski,41.92369842529297,-87.78117370605469,5650,False,6770017317070,State & Pershing,State & 40th Street,1422.38330078125,-3.4,early,17.081,1.9,False,0,False,False
8586,2026-02-19 23:40:00,74,Pulaski,41.92375183105469,-87.77693176269531,6800,False,6770048859010,Lafayette & 94th Street,95th Red Line Station,1418.5,1.5,on_time,25.687,1.57,False,0,False,False
8592,2026-02-19 23:39:00,60,Cicero/24th Pl,41.85023625691732,-87.6713467915853,27044,False,6770048337020,95th Street & Michigan,95th Red Line Station,1414.0,5.0,on_time,14.699,5.03,False,0,False,False
8592,2026-02-19 23:40:00,60,Cicero/24th Pl,41.848572226131665,-87.67564526726218,28357,False,6770043022020,Michigan & 121st Street,Michigan & 122nd Street,1420.183349609375,-0.2,on_time,20.089,0.1,False,0,False,False
8604,2026-02-19 23:38:00,8,79th,41.756061310463764,-87.64420204974235,76426,False,6770018729010,Michigan & 107th Street,10600 S Michigan,1420.6666259765625,-2.7,early,6.354,0.43,False,0,False,False
8604,2026-02-19 23:39:00,8,79th,41.752606322799906,-87.6441631593566,77689,False,6770001251010,35th Street & State (Green Line),35th Street & Michigan,1420.63330078125,-1.6,early,8.883,0.46,False,0,False,False
8607,2026-02-19 23:39:00,53,Peterson,41.88972568511963,-87.72590637207031,53755,False,6770037621010,35th Street & Halsted,35th Street & Lituanica,1420.1500244140625,-1.2,early,9.172,0.0,False,0,False,False
8607,2026-02-19 23:40:00,53,Peterson,41.8948204452927,-87.72608102334512,55613,False,6770036828070,36th Place & Sacramento,36th Place & Albany,1417.800048828125,2.2,on_time,7.771,2.36,False,0,False,False
